{
"type": "FeatureCollection",
                                                                                
"features": [
{ "type": "Feature", "properties": { "longitude": 4.36232, "latitude": 43.86062, "good url": "http:\/\/directory.occupy.net\/occupation\/fr\/occupy-nimes-indignes-de-nimes", "name": "Occupy Nimes - indignés de Nîmes" }, "geometry": { "type": "Point", "coordinates": [ 4.36232, 43.86062 ] } }
,
{ "type": "Feature", "properties": { "longitude": -120.669064, "latitude": 35.488695, "good url": "http:\/\/directory.occupy.net\/occupation\/us\/ca\/occupy-atascadero", "name": "Occupy Atascadero" }, "geometry": { "type": "Point", "coordinates": [ -120.66906, 35.48869 ] } }
,
{ "type": "Feature", "properties": { "longitude": -121.491014, "latitude": 38.579065, "good url": "http:\/\/directory.occupy.net\/occupation\/us\/ca\/occupy-sacramento", "name": "Occupy Sacramento" }, "geometry": { "type": "Point", "coordinates": [ -121.49101, 38.579065 ] } }
,
{ "type": "Feature", "properties": { "longitude": -74.522926, "latitude": 39.468255, "good url": "http:\/\/directory.occupy.net\/occupation\/us\/nj\/occupy-absecon", "name": "Occupy Absecon" }, "geometry": { "type": "Point", "coordinates": [ -74.522926, 39.46825 ] } }
,
{ "type": "Feature", "properties": { "longitude": 0.0, "latitude": -81.5, "good url": "http:\/\/directory.occupy.net\/occupation\/aq\/occupy-mcmurdo-station", "name": "Occupy McMurdo Station" }, "geometry": { "type": "Point", "coordinates": [ 0.0, -81.5 ] } }
,
{ "type": "Feature", "properties": { "longitude": 13.23503, "latitude": -8.81241, "good url": "http:\/\/directory.occupy.net\/occupation\/ao\/occupy-luanda", "name": "Occupy Luanda" }, "geometry": { "type": "Point", "coordinates": [ 13.23503, -8.81241 ] } }
,
{ "type": "Feature", "properties": { "longitude": 21.162365, "latitude": 42.671805, "good url": "http:\/\/directory.occupy.net\/occupation\/al\/occupy-prishtina", "name": "Occupy Prishtina" }, "geometry": { "type": "Point", "coordinates": [ 21.162365, 42.6718 ] } }
,
{ "type": "Feature", "properties": { "longitude": -95.993334, "latitude": 36.149745, "good url": "http:\/\/directory.occupy.net\/occupation\/us\/ok\/occupy-tulsa", "name": "Occupy Tulsa" }, "geometry": { "type": "Point", "coordinates": [ -95.993334, 36.14974 ] } }
,
{ "type": "Feature", "properties": { "longitude": -115.139974, "latitude": 36.171915, "good url": "http:\/\/directory.occupy.net\/occupation\/us\/nv\/occupy-las-vegas", "name": "Occupy Las Vegas" }, "geometry": { "type": "Point", "coordinates": [ -115.13997, 36.171915 ] } }
,
{ "type": "Feature", "properties": { "longitude": 4.752342, "latitude": 52.632603, "good url": "http:\/\/directory.occupy.net\/occupation\/nl\/occupy-alkmaar", "name": "Occupy Alkmaar" }, "geometry": { "type": "Point", "coordinates": [ 4.752342, 52.6326 ] } }
,
{ "type": "Feature", "properties": { "longitude": -104.883373, "latitude": 21.496565, "good url": "http:\/\/directory.occupy.net\/occupation\/mx\/nayarit\/occupy-tepic", "name": "Occupy Tepic" }, "geometry": { "type": "Point", "coordinates": [ -104.88337, 21.49656 ] } }
,
{ "type": "Feature", "properties": { "longitude": 33.348085, "latitude": 35.163889, "good url": "http:\/\/directory.occupy.net\/occupation\/cy\/occupy-buffer-zone", "name": "Occupy Buffer Zone" }, "geometry": { "type": "Point", "coordinates": [ 33.348085, 35.16389 ] } }
,
{ "type": "Feature", "properties": { "longitude": -88.187859, "latitude": 42.199795, "good url": "http:\/\/directory.occupy.net\/occupation\/us\/il\/occupy-barrington-il", "name": "Occupy Barrington IL" }, "geometry": { "type": "Point", "coordinates": [ -88.18786, 42.199795 ] } }
,
{ "type": "Feature", "properties": { "longitude": 12.689928, "latitude": 56.04847, "good url": "http:\/\/directory.occupy.net\/occupation\/se\/occupy-helsingborg", "name": "Occupy Helsingborg" }, "geometry": { "type": "Point", "coordinates": [ 12.68993, 56.04847 ] } }
,
{ "type": "Feature", "properties": { "longitude": -73.213234, "latitude": 44.47592, "good url": "http:\/\/directory.occupy.net\/occupation\/us\/vt\/occupy-burlington-vt", "name": "Occupy Burlington VT" }, "geometry": { "type": "Point", "coordinates": [ -73.21323, 44.47592 ] } }
,
{ "type": "Feature", "properties": { "longitude": 5.688275, "latitude": 50.84983, "good url": "http:\/\/directory.occupy.net\/occupation\/nl\/occupy-maastricht", "name": "Occupy Maastricht" }, "geometry": { "type": "Point", "coordinates": [ 5.688275, 50.84983 ] } }
,
{ "type": "Feature", "properties": { "longitude": -114.057839, "latitude": 35.1893, "good url": "http:\/\/directory.occupy.net\/occupation\/us\/az\/occupy-kingman", "name": "Occupy Kingman" }, "geometry": { "type": "Point", "coordinates": [ -114.05784, 35.1893 ] } }
,
{ "type": "Feature", "properties": { "longitude": -106.648639, "latitude": 35.08418, "good url": "http:\/\/directory.occupy.net\/occupation\/us\/nm\/unoccupy-albuquerque", "name": "(Un)Occupy Albuquerque" }, "geometry": { "type": "Point", "coordinates": [ -106.64864, 35.08418 ] } }
,
{ "type": "Feature", "properties": { "longitude": 5.79257, "latitude": 53.19732, "good url": "http:\/\/directory.occupy.net\/occupation\/nl\/occupy-leeuwarden", "name": "Occupy Leeuwarden" }, "geometry": { "type": "Point", "coordinates": [ 5.79257, 53.19732 ] } }
,
{ "type": "Feature", "properties": { "longitude": -71.760986, "latitude": 42.266628, "good url": "http:\/\/directory.occupy.net\/occupation\/us\/ma\/occupy-worcester", "name": "Occupy Worcester" }, "geometry": { "type": "Point", "coordinates": [ -71.76099, 42.26663 ] } }
,
{ "type": "Feature", "properties": { "longitude": 3.119495, "latitude": 45.78079, "good url": "http:\/\/directory.occupy.net\/occupation\/fr\/clermont-ferrand", "name": "Clermont-Ferrand" }, "geometry": { "type": "Point", "coordinates": [ 3.119495, 45.78079 ] } }
,
{ "type": "Feature", "properties": { "longitude": 5.85759, "latitude": 51.841205, "good url": "http:\/\/directory.occupy.net\/occupation\/nl\/occupy-nijmegen", "name": "Occupy Nijmegen" }, "geometry": { "type": "Point", "coordinates": [ 5.85759, 51.8412 ] } }
,
{ "type": "Feature", "properties": { "longitude": 5.386085, "latitude": 52.152325, "good url": "http:\/\/directory.occupy.net\/occupation\/nl\/occupy-amersfoort", "name": "Occupy Amersfoort" }, "geometry": { "type": "Point", "coordinates": [ 5.386085, 52.15232 ] } }
,
{ "type": "Feature", "properties": { "longitude": -86.802906, "latitude": 36.146629, "good url": "http:\/\/directory.occupy.net\/occupation\/us\/tn\/occupy-vanderbilt", "name": "Occupy Vanderbilt" }, "geometry": { "type": "Point", "coordinates": [ -86.80291, 36.14663 ] } }
,
{ "type": "Feature", "properties": { "longitude": -82.412955, "latitude": 28.054569, "good url": "http:\/\/directory.occupy.net\/occupation\/us\/fl\/occupy-university-south-florida", "name": "Occupy University of South Florida" }, "geometry": { "type": "Point", "coordinates": [ -82.41295, 28.054569 ] } }
,
{ "type": "Feature", "properties": { "longitude": 16.3337, "latitude": 48.1968, "good url": "http:\/\/directory.occupy.net\/occupation\/at\/occupy-vienna", "name": "Occupy Vienna" }, "geometry": { "type": "Point", "coordinates": [ 16.3337, 48.1968 ] } }
,
{ "type": "Feature", "properties": { "longitude": -83.115663, "latitude": 42.331177, "good url": "http:\/\/directory.occupy.net\/occupation\/us\/mi\/occupy-detroit", "name": "Occupy Detroit" }, "geometry": { "type": "Point", "coordinates": [ -83.11566, 42.331177 ] } }
,
{ "type": "Feature", "properties": { "longitude": -86.584979, "latitude": 34.729135, "good url": "http:\/\/directory.occupy.net\/occupation\/us\/al\/occupy-huntsville", "name": "Occupy Huntsville" }, "geometry": { "type": "Point", "coordinates": [ -86.58498, 34.72913 ] } }
,
{ "type": "Feature", "properties": { "longitude": -74.295036, "latitude": 40.23447, "good url": "http:\/\/directory.occupy.net\/occupation\/us\/nj\/occupy-freehold", "name": "Occupy Freehold" }, "geometry": { "type": "Point", "coordinates": [ -74.29504, 40.23447 ] } }
,
{ "type": "Feature", "properties": { "longitude": -78.826042, "latitude": 43.177051, "good url": "http:\/\/directory.occupy.net\/occupation\/us\/ny\/occupy-lockport", "name": "Occupy Lockport" }, "geometry": { "type": "Point", "coordinates": [ -78.82604, 43.17705 ] } }
,
{ "type": "Feature", "properties": { "longitude": -84.386714, "latitude": 33.775045, "good url": "http:\/\/directory.occupy.net\/occupation\/us\/ga\/occupy-atlanta-0", "name": "Occupy Atlanta" }, "geometry": { "type": "Point", "coordinates": [ -84.38671, 33.77504 ] } }
,
{ "type": "Feature", "properties": { "longitude": 6.128889, "latitude": 45.898784, "good url": "http:\/\/directory.occupy.net\/occupation\/fr\/occupy-annecy", "name": "Occupy Annecy" }, "geometry": { "type": "Point", "coordinates": [ 6.128889, 45.89878 ] } }
,
{ "type": "Feature", "properties": { "longitude": -72.640488, "latitude": 42.222694, "good url": "http:\/\/directory.occupy.net\/occupation\/us\/ma\/occupy-hcc", "name": "Occupy HCC" }, "geometry": { "type": "Point", "coordinates": [ -72.640488, 42.22269 ] } }
,
{ "type": "Feature", "properties": { "longitude": -85.978745, "latitude": 35.830734, "good url": "http:\/\/directory.occupy.net\/occupation\/tn\/occupy-sidi-bouzid", "name": "Occupy Sidi Bouzid" }, "geometry": { "type": "Point", "coordinates": [ -85.97874, 35.830734 ] } }
,
{ "type": "Feature", "properties": { "longitude": -105.004391, "latitude": 39.607508, "good url": "http:\/\/directory.occupy.net\/occupation\/us\/co\/occupy-littleton-co", "name": "Occupy Littleton CO" }, "geometry": { "type": "Point", "coordinates": [ -105.004391, 39.60751 ] } }
,
{ "type": "Feature", "properties": { "longitude": -71.77487, "latitude": 44.307104, "good url": "http:\/\/directory.occupy.net\/occupation\/us\/nh\/occupy-littleton-nh", "name": "Occupy Littleton NH" }, "geometry": { "type": "Point", "coordinates": [ -71.77487, 44.3071 ] } }
,
{ "type": "Feature", "properties": { "longitude": -68.015377, "latitude": 46.681615, "good url": "http:\/\/directory.occupy.net\/occupation\/us\/me\/occupy-aroostook", "name": "Occupy Aroostook" }, "geometry": { "type": "Point", "coordinates": [ -68.01538, 46.68161 ] } }
,
{ "type": "Feature", "properties": { "longitude": -83.978373, "latitude": 43.867935, "good url": "http:\/\/directory.occupy.net\/occupation\/us\/mi\/occupy-the-tri", "name": "Occupy the TRI" }, "geometry": { "type": "Point", "coordinates": [ -83.978373, 43.86793 ] } }
,
{ "type": "Feature", "properties": { "longitude": -160.062281, "latitude": 21.980066, "good url": "http:\/\/directory.occupy.net\/occupation\/us\/hi\/occupy-kauai", "name": "Occupy Kauai" }, "geometry": { "type": "Point", "coordinates": [ -160.06228, 21.98007 ] } }
,
{ "type": "Feature", "properties": { "longitude": -87.413229, "latitude": 39.466495, "good url": "http:\/\/directory.occupy.net\/occupation\/us\/in\/occupy-terre-haute", "name": "Occupy Terre Haute" }, "geometry": { "type": "Point", "coordinates": [ -87.41323, 39.46649 ] } }
,
{ "type": "Feature", "properties": { "longitude": -122.423734, "latitude": 37.781562, "good url": "http:\/\/directory.occupy.net\/occupation\/us\/ca\/occupy-san-francisco-state-universi", "name": "Occupy San Francisco - State University" }, "geometry": { "type": "Point", "coordinates": [ -122.42373, 37.781562 ] } }
,
{ "type": "Feature", "properties": { "longitude": 13.376987, "latitude": 52.516074, "good url": "http:\/\/directory.occupy.net\/occupation\/de\/occupy-berlin", "name": "Occupy Berlin" }, "geometry": { "type": "Point", "coordinates": [ 13.376987, 52.516074 ] } }
,
{ "type": "Feature", "properties": { "longitude": 174.77042, "latitude": -36.884109, "good url": "http:\/\/directory.occupy.net\/occupation\/nz\/occupy-aotearoa", "name": "Occupy Aotearoa" }, "geometry": { "type": "Point", "coordinates": [ 174.77042, -36.884109 ] } }
,
{ "type": "Feature", "properties": { "longitude": -92.288792, "latitude": 34.746457, "good url": "http:\/\/directory.occupy.net\/occupation\/us\/ar\/occupy-little-rock", "name": "Occupy Little Rock" }, "geometry": { "type": "Point", "coordinates": [ -92.28879, 34.74646 ] } }
,
{ "type": "Feature", "properties": { "longitude": -6.30137, "latitude": 53.389961, "good url": "http:\/\/directory.occupy.net\/occupation\/ie\/occupy-fingal", "name": "Occupy Fingal" }, "geometry": { "type": "Point", "coordinates": [ -6.30137, 53.389961 ] } }
,
{ "type": "Feature", "properties": { "longitude": 6.17134, "latitude": 51.371454, "good url": "http:\/\/directory.occupy.net\/occupation\/nl\/venlo", "name": "Venlo" }, "geometry": { "type": "Point", "coordinates": [ 6.17134, 51.371454 ] } }
,
{ "type": "Feature", "properties": { "longitude": -80.241094, "latitude": 36.099625, "good url": "http:\/\/directory.occupy.net\/occupation\/us\/nc\/occupy-winston-salem", "name": "Occupy Winston-Salem" }, "geometry": { "type": "Point", "coordinates": [ -80.241094, 36.099625 ] } }
,
{ "type": "Feature", "properties": { "longitude": -104.821544, "latitude": 41.134815, "good url": "http:\/\/directory.occupy.net\/occupation\/us\/wy\/occupy-cheyenne", "name": "Occupy Cheyenne" }, "geometry": { "type": "Point", "coordinates": [ -104.821544, 41.134815 ] } }
,
{ "type": "Feature", "properties": { "longitude": -104.694459, "latitude": 40.42327, "good url": "http:\/\/directory.occupy.net\/occupation\/us\/co\/occupy-greeley", "name": "Occupy Greeley" }, "geometry": { "type": "Point", "coordinates": [ -104.69446, 40.42327 ] } }
,
{ "type": "Feature", "properties": { "longitude": -108.570304, "latitude": 39.067355, "good url": "http:\/\/directory.occupy.net\/occupation\/us\/co\/occupy-grand-junction", "name": "Occupy Grand Junction" }, "geometry": { "type": "Point", "coordinates": [ -108.5703, 39.067355 ] } }
,
{ "type": "Feature", "properties": { "longitude": -105.267269, "latitude": 40.00593, "good url": "http:\/\/directory.occupy.net\/occupation\/us\/co\/occupy-boulder-cu", "name": "Occupy Boulder - CU" }, "geometry": { "type": "Point", "coordinates": [ -105.267269, 40.00593 ] } }
,
{ "type": "Feature", "properties": { "longitude": -82.481051, "latitude": 27.957169, "good url": "http:\/\/directory.occupy.net\/occupation\/us\/fl\/occupy-tampa", "name": "Occupy Tampa" }, "geometry": { "type": "Point", "coordinates": [ -82.48105, 27.95717 ] } }
,
{ "type": "Feature", "properties": { "longitude": -106.819349, "latitude": 39.190265, "good url": "http:\/\/directory.occupy.net\/occupation\/us\/co\/occupy-aspen", "name": "Occupy Aspen" }, "geometry": { "type": "Point", "coordinates": [ -106.819349, 39.190265 ] } }
,
{ "type": "Feature", "properties": { "longitude": -105.077086, "latitude": 40.56264, "good url": "http:\/\/directory.occupy.net\/occupation\/us\/co\/occupy-fort-collins", "name": "Occupy Fort Collins" }, "geometry": { "type": "Point", "coordinates": [ -105.07709, 40.56264 ] } }
,
{ "type": "Feature", "properties": { "longitude": -117.109934, "latitude": 44.87724, "good url": "http:\/\/directory.occupy.net\/occupation\/us\/or\/occupy-halfway", "name": "Occupy Halfway" }, "geometry": { "type": "Point", "coordinates": [ -117.10993, 44.87724 ] } }
,
{ "type": "Feature", "properties": { "longitude": -74.759404, "latitude": 40.217875, "good url": "http:\/\/directory.occupy.net\/occupation\/us\/nj\/occupy-trenton", "name": "Occupy Trenton" }, "geometry": { "type": "Point", "coordinates": [ -74.7594, 40.217875 ] } }
,
{ "type": "Feature", "properties": { "longitude": -85.615839, "latitude": 44.759995, "good url": "http:\/\/directory.occupy.net\/occupation\/us\/mi\/occupy-traverse-city", "name": "Occupy Traverse City" }, "geometry": { "type": "Point", "coordinates": [ -85.61584, 44.75999 ] } }
,
{ "type": "Feature", "properties": { "longitude": -97.746751, "latitude": 30.265053, "good url": "http:\/\/directory.occupy.net\/occupation\/us\/tx\/occupy-austin-tx", "name": "Occupy Austin TX" }, "geometry": { "type": "Point", "coordinates": [ -97.74675, 30.26505 ] } }
,
{ "type": "Feature", "properties": { "longitude": -76.366886, "latitude": 40.005499, "good url": "http:\/\/directory.occupy.net\/occupation\/us\/pa\/occupy-lancaster-pa", "name": "Occupy Lancaster PA" }, "geometry": { "type": "Point", "coordinates": [ -76.366886, 40.0055 ] } }
,
{ "type": "Feature", "properties": { "longitude": -2.793735, "latitude": 54.040171, "good url": "http:\/\/directory.occupy.net\/occupation\/gb\/occupy-lancaster-uk", "name": "Occupy Lancaster UK" }, "geometry": { "type": "Point", "coordinates": [ -2.79373, 54.04017 ] } }
,
{ "type": "Feature", "properties": { "longitude": -118.25331, "latitude": 34.04896, "good url": "http:\/\/directory.occupy.net\/occupation\/us\/ca\/occupy-los-angeles", "name": "Occupy Los Angeles" }, "geometry": { "type": "Point", "coordinates": [ -118.25331, 34.04896 ] } }
,
{ "type": "Feature", "properties": { "longitude": 5.670516, "latitude": 52.031946, "good url": "http:\/\/directory.occupy.net\/occupation\/nl\/occupy-ede", "name": "Occupy Ede" }, "geometry": { "type": "Point", "coordinates": [ 5.670516, 52.03195 ] } }
,
{ "type": "Feature", "properties": { "longitude": -90.192219, "latitude": 38.62597, "good url": "http:\/\/directory.occupy.net\/occupation\/us\/mo\/occupy-st-louis", "name": "Occupy St. Louis" }, "geometry": { "type": "Point", "coordinates": [ -90.19222, 38.62597 ] } }
,
{ "type": "Feature", "properties": { "longitude": -52.711788, "latitude": 47.561241, "good url": "http:\/\/directory.occupy.net\/occupation\/ca\/nl\/occupy-st-johns", "name": "Occupy St. John&#039;s" }, "geometry": { "type": "Point", "coordinates": [ -52.71179, 47.56124 ] } }
,
{ "type": "Feature", "properties": { "longitude": -66.639124, "latitude": 45.96064, "good url": "http:\/\/directory.occupy.net\/occupation\/ca\/nb\/occupy-fredericton", "name": "Occupy Fredericton" }, "geometry": { "type": "Point", "coordinates": [ -66.63912, 45.96064 ] } }
,
{ "type": "Feature", "properties": { "longitude": 79.8722, "latitude": 6.9272, "good url": "http:\/\/directory.occupy.net\/occupation\/lk\/occupy-colombo", "name": "Occupy Colombo" }, "geometry": { "type": "Point", "coordinates": [ 79.8722, 6.9272 ] } }
,
{ "type": "Feature", "properties": { "longitude": -118.245319, "latitude": 34.05349, "good url": "http:\/\/directory.occupy.net\/occupation\/us\/ca\/occupy-ucla", "name": "Occupy UCLA" }, "geometry": { "type": "Point", "coordinates": [ -118.24532, 34.05349 ] } }
,
{ "type": "Feature", "properties": { "longitude": -117.294124, "latitude": 34.105245, "good url": "http:\/\/directory.occupy.net\/occupation\/us\/ca\/occupy-san-bernadino-valley", "name": "Occupy San Bernadino Valley" }, "geometry": { "type": "Point", "coordinates": [ -117.29412, 34.10524 ] } }
,
{ "type": "Feature", "properties": { "longitude": -117.435759, "latitude": 34.10205, "good url": "http:\/\/directory.occupy.net\/occupation\/us\/ca\/occupy-fontana", "name": "Occupy Fontana" }, "geometry": { "type": "Point", "coordinates": [ -117.43576, 34.10205 ] } }
,
{ "type": "Feature", "properties": { "longitude": -117.372829, "latitude": 34.099655, "good url": "http:\/\/directory.occupy.net\/occupation\/us\/ca\/occupy-rialto", "name": "Occupy Rialto" }, "geometry": { "type": "Point", "coordinates": [ -117.37283, 34.09965 ] } }
,
{ "type": "Feature", "properties": { "longitude": -88.416564, "latitude": 44.26178, "good url": "http:\/\/directory.occupy.net\/occupation\/us\/wi\/occupy-appleton", "name": "Occupy Appleton" }, "geometry": { "type": "Point", "coordinates": [ -88.41656, 44.26178 ] } }
,
{ "type": "Feature", "properties": { "longitude": -77.028874, "latitude": 38.99668, "good url": "http:\/\/directory.occupy.net\/occupation\/us\/md\/occupy-montgomery-county-md", "name": "Occupy Montgomery County (MD)" }, "geometry": { "type": "Point", "coordinates": [ -77.02887, 38.99668 ] } }
,
{ "type": "Feature", "properties": { "longitude": -97.335579, "latitude": 37.68602, "good url": "http:\/\/directory.occupy.net\/occupation\/us\/ks\/occupy-wichita", "name": "Occupy Wichita" }, "geometry": { "type": "Point", "coordinates": [ -97.33558, 37.68602 ] } }
,
{ "type": "Feature", "properties": { "longitude": -21.933989, "latitude": 64.147415, "good url": "http:\/\/directory.occupy.net\/occupation\/is\/occupy-reykjavik", "name": "Occupy Reykjavik" }, "geometry": { "type": "Point", "coordinates": [ -21.933989, 64.147415 ] } }
,
{ "type": "Feature", "properties": { "longitude": -87.675254, "latitude": 34.800465, "good url": "http:\/\/directory.occupy.net\/occupation\/us\/al\/occupy-florence-al", "name": "Occupy Florence AL" }, "geometry": { "type": "Point", "coordinates": [ -87.67525, 34.80046 ] } }
,
{ "type": "Feature", "properties": { "longitude": -90.539182, "latitude": 41.509584, "good url": "http:\/\/directory.occupy.net\/occupation\/us\/il\/occupy-quad-cities-0", "name": "Occupy Quad Cities" }, "geometry": { "type": "Point", "coordinates": [ -90.53918, 41.50958 ] } }
,
{ "type": "Feature", "properties": { "longitude": -73.60995, "latitude": 45.535185, "good url": "http:\/\/directory.occupy.net\/occupation\/ca\/qc\/occupons-le-coeur-de-lile", "name": "Occupons le Coeur de l&#039;Île" }, "geometry": { "type": "Point", "coordinates": [ -73.60995, 45.535185 ] } }
,
{ "type": "Feature", "properties": { "longitude": -87.906844, "latitude": 43.04181, "good url": "http:\/\/directory.occupy.net\/occupation\/us\/wi\/occupy-hood-milwaukee", "name": "Occupy The Hood" }, "geometry": { "type": "Point", "coordinates": [ -87.90684, 43.04181 ] } }
,
{ "type": "Feature", "properties": { "longitude": -87.906844, "latitude": 43.04181, "good url": "http:\/\/directory.occupy.net\/occupation\/us\/wi\/occupy-milwaukee", "name": "Occupy Milwaukee" }, "geometry": { "type": "Point", "coordinates": [ -87.90684, 43.04181 ] } }
,
{ "type": "Feature", "properties": { "longitude": -87.895498, "latitude": 43.059817, "good url": "http:\/\/directory.occupy.net\/occupation\/us\/wi\/occupy%C2%A0milwaukee-riverview", "name": "Occupy Milwaukee (Riverview)" }, "geometry": { "type": "Point", "coordinates": [ -87.8955, 43.05982 ] } }
,
{ "type": "Feature", "properties": { "longitude": -104.992259, "latitude": 39.74001, "good url": "http:\/\/directory.occupy.net\/occupation\/us\/co\/occupy-denver", "name": "Occupy Denver" }, "geometry": { "type": "Point", "coordinates": [ -104.992259, 39.74001 ] } }
,
{ "type": "Feature", "properties": { "longitude": -104.821814, "latitude": 38.83345, "good url": "http:\/\/directory.occupy.net\/occupation\/us\/co\/occupy-colorado-springs", "name": "Occupy Colorado Springs" }, "geometry": { "type": "Point", "coordinates": [ -104.82181, 38.83345 ] } }
,
{ "type": "Feature", "properties": { "longitude": -124.993141, "latitude": 49.68672, "good url": "http:\/\/directory.occupy.net\/occupation\/ca\/bc\/occupy-courtenay", "name": "Occupy Courtenay" }, "geometry": { "type": "Point", "coordinates": [ -124.99314, 49.68672 ] } }
,
{ "type": "Feature", "properties": { "longitude": -121.906887, "latitude": 49.575605, "good url": "http:\/\/directory.occupy.net\/occupation\/ca\/bc\/occupy-fraser-valley", "name": "Occupy Fraser Valley" }, "geometry": { "type": "Point", "coordinates": [ -121.90689, 49.5756 ] } }
,
{ "type": "Feature", "properties": { "longitude": -3.705774, "latitude": 40.4203, "good url": "http:\/\/directory.occupy.net\/occupation\/es\/occupy-madrid", "name": "Occupy Madrid" }, "geometry": { "type": "Point", "coordinates": [ -3.705774, 40.4203 ] } }
,
{ "type": "Feature", "properties": { "longitude": -91.526534, "latitude": 41.657825, "good url": "http:\/\/directory.occupy.net\/occupation\/us\/ia\/occupy-iowa-city", "name": "Occupy Iowa City" }, "geometry": { "type": "Point", "coordinates": [ -91.526534, 41.65782 ] } }
,
{ "type": "Feature", "properties": { "longitude": -104.9634, "latitude": 39.678538, "good url": "http:\/\/directory.occupy.net\/occupation\/us\/co\/occupy-du-university-denver", "name": "Occupy DU - University of Denver" }, "geometry": { "type": "Point", "coordinates": [ -104.9634, 39.67854 ] } }
,
{ "type": "Feature", "properties": { "longitude": -119.903089, "latitude": 37.484357, "good url": "http:\/\/directory.occupy.net\/occupation\/us\/ca\/occupy-mariposa-county", "name": "Occupy Mariposa County" }, "geometry": { "type": "Point", "coordinates": [ -119.90309, 37.48436 ] } }
,
{ "type": "Feature", "properties": { "longitude": -122.389349, "latitude": 47.76992, "good url": "http:\/\/directory.occupy.net\/occupation\/us\/wa\/occupy-richmond-beach-wa", "name": "Occupy Richmond Beach WA" }, "geometry": { "type": "Point", "coordinates": [ -122.38935, 47.76992 ] } }
,
{ "type": "Feature", "properties": { "longitude": -120.641529, "latitude": 39.266054, "good url": "http:\/\/directory.occupy.net\/occupation\/us\/ca\/occupy-nevada-county", "name": "Occupy Nevada County" }, "geometry": { "type": "Point", "coordinates": [ -120.641529, 39.26605 ] } }
,
{ "type": "Feature", "properties": { "longitude": -96.325897, "latitude": 30.620541, "good url": "http:\/\/directory.occupy.net\/occupation\/us\/tx\/occupy-bryan-college-station", "name": "Occupy Bryan\/College Station" }, "geometry": { "type": "Point", "coordinates": [ -96.3259, 30.62054 ] } }
,
{ "type": "Feature", "properties": { "longitude": -104.812652, "latitude": 39.70871, "good url": "http:\/\/directory.occupy.net\/occupation\/us\/co\/occupy-aurora-co", "name": "Occupy Aurora CO" }, "geometry": { "type": "Point", "coordinates": [ -104.81265, 39.70871 ] } }
,
{ "type": "Feature", "properties": { "longitude": -0.376913, "latitude": 39.468791, "good url": "http:\/\/directory.occupy.net\/occupation\/es\/occupy-valencia", "name": "Occupy Valencia" }, "geometry": { "type": "Point", "coordinates": [ -0.376913, 39.46879 ] } }
,
{ "type": "Feature", "properties": { "longitude": -5.934524, "latitude": 54.595295, "good url": "http:\/\/directory.occupy.net\/occupation\/gb\/occupy-belfast", "name": "Occupy Belfast" }, "geometry": { "type": "Point", "coordinates": [ -5.93452, 54.595295 ] } }
,
{ "type": "Feature", "properties": { "longitude": -7.937107, "latitude": 53.423267, "good url": "http:\/\/directory.occupy.net\/occupation\/ie\/occupy-athlone", "name": "Occupy Athlone" }, "geometry": { "type": "Point", "coordinates": [ -7.937107, 53.42327 ] } }
,
{ "type": "Feature", "properties": { "longitude": -7.110869, "latitude": 52.262, "good url": "http:\/\/directory.occupy.net\/occupation\/ie\/occupy-waterford", "name": "Occupy Waterford" }, "geometry": { "type": "Point", "coordinates": [ -7.11087, 52.262 ] } }
,
{ "type": "Feature", "properties": { "longitude": -8.472774, "latitude": 51.89834, "good url": "http:\/\/directory.occupy.net\/occupation\/ie\/occupy-cork", "name": "Occupy Cork" }, "geometry": { "type": "Point", "coordinates": [ -8.472774, 51.89834 ] } }
,
{ "type": "Feature", "properties": { "longitude": 115.912231, "latitude": -31.924074, "good url": "http:\/\/directory.occupy.net\/occupation\/au\/wa\/occupy-perth", "name": "Occupy Perth" }, "geometry": { "type": "Point", "coordinates": [ 115.91223, -31.924074 ] } }
,
{ "type": "Feature", "properties": { "longitude": -71.888935, "latitude": 45.403264, "good url": "http:\/\/directory.occupy.net\/occupation\/ca\/qc\/occupons-sherbrooke-occupy-sherbroo", "name": "Occupons Sherbrooke - Occupy Sherbrooke" }, "geometry": { "type": "Point", "coordinates": [ -71.88893, 45.403264 ] } }
,
{ "type": "Feature", "properties": { "longitude": -9.58384, "latitude": 51.88031, "good url": "http:\/\/directory.occupy.net\/occupation\/ie\/occupy-kenmare", "name": "Occupy Kenmare" }, "geometry": { "type": "Point", "coordinates": [ -9.58384, 51.88031 ] } }
,
{ "type": "Feature", "properties": { "longitude": -6.248274, "latitude": 53.34807, "good url": "http:\/\/directory.occupy.net\/occupation\/ie\/occupy-dame-street", "name": "Occupy Dame Street" }, "geometry": { "type": "Point", "coordinates": [ -6.248274, 53.34807 ] } }
,
{ "type": "Feature", "properties": { "longitude": 18.42197, "latitude": -33.919104, "good url": "http:\/\/directory.occupy.net\/occupation\/za\/occupy-cape-town", "name": "Occupy Cape Town" }, "geometry": { "type": "Point", "coordinates": [ 18.42197, -33.919104 ] } }
,
{ "type": "Feature", "properties": { "longitude": -97.226738, "latitude": 37.667225, "good url": "http:\/\/directory.occupy.net\/occupation\/us\/ks\/occupy-wichita-0", "name": "Occupy Wichita" }, "geometry": { "type": "Point", "coordinates": [ -97.22674, 37.66722 ] } }
,
{ "type": "Feature", "properties": { "longitude": -71.345853, "latitude": 42.284054, "good url": "http:\/\/directory.occupy.net\/occupation\/us\/ma\/occupy-natick-0", "name": "Occupy Natick" }, "geometry": { "type": "Point", "coordinates": [ -71.34585, 42.28405 ] } }
,
{ "type": "Feature", "properties": { "longitude": -6.248274, "latitude": 53.34807, "good url": "http:\/\/directory.occupy.net\/occupation\/ie\/occupy-dublin", "name": "Occupy Dublin" }, "geometry": { "type": "Point", "coordinates": [ -6.248274, 53.34807 ] } }
,
{ "type": "Feature", "properties": { "longitude": -7.730824, "latitude": 54.951939, "good url": "http:\/\/directory.occupy.net\/occupation\/ie\/occupy-letterkenny", "name": "Occupy Letterkenny" }, "geometry": { "type": "Point", "coordinates": [ -7.730824, 54.95194 ] } }
,
{ "type": "Feature", "properties": { "longitude": -9.048349, "latitude": 53.273885, "good url": "http:\/\/directory.occupy.net\/occupation\/ie\/occupy-galway", "name": "Occupy Galway" }, "geometry": { "type": "Point", "coordinates": [ -9.048349, 53.273885 ] } }
,
{ "type": "Feature", "properties": { "longitude": -105.266388, "latitude": 40.005169, "good url": "http:\/\/directory.occupy.net\/occupation\/us\/co\/occupy-boulder", "name": "Occupy Boulder" }, "geometry": { "type": "Point", "coordinates": [ -105.26639, 40.005169 ] } }
,
{ "type": "Feature", "properties": { "longitude": -74.010549, "latitude": 40.70915, "good url": "http:\/\/directory.occupy.net\/occupation\/us\/ny\/occupy-wall-street", "name": "Occupy Wall Street" }, "geometry": { "type": "Point", "coordinates": [ -74.01055, 40.70915 ] } }
,
{ "type": "Feature", "properties": { "longitude": -74.007124, "latitude": 40.71455, "good url": "http:\/\/directory.occupy.net\/occupation\/us\/ny\/occupy-nyc-bbc", "name": "Occupy NYC" }, "geometry": { "type": "Point", "coordinates": [ -74.00712, 40.71455 ] } }
,
{ "type": "Feature", "properties": { "longitude": -122.712427, "latitude": 38.437731, "good url": "http:\/\/directory.occupy.net\/occupation\/us\/ca\/occupy-santa-rosa", "name": "Occupy Santa Rosa" }, "geometry": { "type": "Point", "coordinates": [ -122.71243, 38.43773 ] } }
,
{ "type": "Feature", "properties": { "longitude": -98.494619, "latitude": 29.42449, "good url": "http:\/\/directory.occupy.net\/occupation\/us\/tx\/occupy-bexar", "name": "Occupy Bexar" }, "geometry": { "type": "Point", "coordinates": [ -98.49462, 29.42449 ] } }
,
{ "type": "Feature", "properties": { "longitude": -98.494619, "latitude": 29.42449, "good url": "http:\/\/directory.occupy.net\/occupation\/us\/tx\/occupy-san-antonio", "name": "Occupy San Antonio" }, "geometry": { "type": "Point", "coordinates": [ -98.49462, 29.42449 ] } }
,
{ "type": "Feature", "properties": { "longitude": -73.909081, "latitude": 40.77932, "good url": "http:\/\/directory.occupy.net\/occupation\/us\/ny\/occupy-astoria-long-island-city", "name": "Occupy Astoria Long Island City" }, "geometry": { "type": "Point", "coordinates": [ -73.90908, 40.77932 ] } }
,
{ "type": "Feature", "properties": { "longitude": -123.833954, "latitude": 46.18977, "good url": "http:\/\/directory.occupy.net\/occupation\/us\/or\/occupy-astoria-or", "name": "Occupy Astoria OR" }, "geometry": { "type": "Point", "coordinates": [ -123.833954, 46.18977 ] } }
,
{ "type": "Feature", "properties": { "longitude": -88.068234, "latitude": 41.844504, "good url": "http:\/\/directory.occupy.net\/occupation\/us\/il\/occupy-college-dupage", "name": "Occupy College Of DuPage" }, "geometry": { "type": "Point", "coordinates": [ -88.068234, 41.8445 ] } }
,
{ "type": "Feature", "properties": { "longitude": 17.107005, "latitude": 48.149245, "good url": "http:\/\/directory.occupy.net\/occupation\/sk\/occupy-bratislava", "name": "Occupy Bratislava" }, "geometry": { "type": "Point", "coordinates": [ 17.107005, 48.14924 ] } }
,
{ "type": "Feature", "properties": { "longitude": -85.481735, "latitude": 32.607465, "good url": "http:\/\/directory.occupy.net\/occupation\/us\/al\/occupy-auburn", "name": "Occupy Auburn" }, "geometry": { "type": "Point", "coordinates": [ -85.48173, 32.60746 ] } }
,
{ "type": "Feature", "properties": { "longitude": -86.811504, "latitude": 33.520295, "good url": "http:\/\/directory.occupy.net\/occupation\/us\/al\/occupy-birmingham-al", "name": "Occupy Birmingham AL" }, "geometry": { "type": "Point", "coordinates": [ -86.8115, 33.52029 ] } }
,
{ "type": "Feature", "properties": { "longitude": -85.819449, "latitude": 33.65711, "good url": "http:\/\/directory.occupy.net\/occupation\/us\/al\/occupy-anniston", "name": "Occupy Anniston" }, "geometry": { "type": "Point", "coordinates": [ -85.81945, 33.65711 ] } }
,
{ "type": "Feature", "properties": { "longitude": -122.419952, "latitude": 37.740131, "good url": "http:\/\/directory.occupy.net\/occupation\/us\/ca\/occupy-bernal", "name": "Occupy Bernal" }, "geometry": { "type": "Point", "coordinates": [ -122.419952000206635, 37.74013 ] } }
,
{ "type": "Feature", "properties": { "longitude": -89.386369, "latitude": 43.07471, "good url": "http:\/\/directory.occupy.net\/occupation\/us\/wi\/occupy-madison-wi", "name": "Occupy Madison WI" }, "geometry": { "type": "Point", "coordinates": [ -89.38637, 43.07471 ] } }
,
{ "type": "Feature", "properties": { "longitude": -113.996234, "latitude": 46.87278, "good url": "http:\/\/directory.occupy.net\/occupation\/us\/mt\/occupy-university-montana", "name": "Occupy University of Montana" }, "geometry": { "type": "Point", "coordinates": [ -113.99623, 46.87278 ] } }
,
{ "type": "Feature", "properties": { "longitude": -117.385822, "latitude": 47.672976, "good url": "http:\/\/directory.occupy.net\/occupation\/us\/wa\/occupy-spokane", "name": "Occupy Spokane" }, "geometry": { "type": "Point", "coordinates": [ -117.38582, 47.67298 ] } }
,
{ "type": "Feature", "properties": { "longitude": -38.504559, "latitude": -12.97002, "good url": "http:\/\/directory.occupy.net\/occupation\/br\/ba\/occupy-salvador", "name": "Occupy Salvador" }, "geometry": { "type": "Point", "coordinates": [ -38.504559, -12.97002 ] } }
,
{ "type": "Feature", "properties": { "longitude": -46.587154, "latitude": -23.590315, "good url": "http:\/\/directory.occupy.net\/occupation\/br\/sp\/occupy-sao-paulo-acampa-sampa", "name": "Occupy Sao Paulo (Acampa Sampa)" }, "geometry": { "type": "Point", "coordinates": [ -46.58715, -23.590315 ] } }
,
{ "type": "Feature", "properties": { "longitude": -51.222561, "latitude": -30.02652, "good url": "http:\/\/directory.occupy.net\/occupation\/br\/rs\/occupy-porto-alegre-ocupa-poa", "name": "Occupy Porto Alegre (Ocupa POA)" }, "geometry": { "type": "Point", "coordinates": [ -51.22256, -30.02652 ] } }
,
{ "type": "Feature", "properties": { "longitude": -43.19508, "latitude": -22.97673, "good url": "http:\/\/directory.occupy.net\/occupation\/br\/rj\/occupy-rio-ocupa-rio", "name": "Occupy Rio (Ocupa Rio)" }, "geometry": { "type": "Point", "coordinates": [ -43.19508, -22.97673 ] } }
,
{ "type": "Feature", "properties": { "longitude": -81.090719, "latitude": 32.08078, "good url": "http:\/\/directory.occupy.net\/occupation\/us\/ga\/occupy-savannah", "name": "Occupy Savannah" }, "geometry": { "type": "Point", "coordinates": [ -81.090719, 32.08078 ] } }
,
{ "type": "Feature", "properties": { "longitude": -82.638764, "latitude": 27.77119, "good url": "http:\/\/directory.occupy.net\/occupation\/us\/fl\/occupy-st-petersburg-fl", "name": "Occupy St. Petersburg FL" }, "geometry": { "type": "Point", "coordinates": [ -82.63876, 27.77119 ] } }
,
{ "type": "Feature", "properties": { "longitude": 30.306115, "latitude": 59.93314, "good url": "http:\/\/directory.occupy.net\/occupation\/ru\/occupy-st-petersburg-rus", "name": "Occupy St. Petersburg RUS" }, "geometry": { "type": "Point", "coordinates": [ 30.306115, 59.93314 ] } }
,
{ "type": "Feature", "properties": { "longitude": 24.7526, "latitude": 59.436475, "good url": "http:\/\/directory.occupy.net\/occupation\/ee\/occupy-tallinn-0", "name": "Occupy Tallinn" }, "geometry": { "type": "Point", "coordinates": [ 24.7526, 59.43647 ] } }
,
{ "type": "Feature", "properties": { "longitude": 77.218075, "latitude": 28.626225, "good url": "http:\/\/directory.occupy.net\/occupation\/in\/occupy-new-delhi", "name": "Occupy New Delhi" }, "geometry": { "type": "Point", "coordinates": [ 77.218075, 28.626225 ] } }
,
{ "type": "Feature", "properties": { "longitude": 77.226246, "latitude": 28.5948, "good url": "http:\/\/directory.occupy.net\/occupation\/in\/occupy-delhi-india", "name": "Occupy Delhi India" }, "geometry": { "type": "Point", "coordinates": [ 77.22625, 28.5948 ] } }
,
{ "type": "Feature", "properties": { "longitude": 68.378532, "latitude": 25.36763, "good url": "http:\/\/directory.occupy.net\/occupation\/pk\/occupy-hyderabad-pakistan", "name": "Occupy Hyderabad Pakistan" }, "geometry": { "type": "Point", "coordinates": [ 68.378532, 25.36763 ] } }
,
{ "type": "Feature", "properties": { "longitude": -122.654298, "latitude": 45.520041, "good url": "http:\/\/directory.occupy.net\/occupation\/us\/or\/occupy-portland-or", "name": "Occupy Portland OR" }, "geometry": { "type": "Point", "coordinates": [ -122.6543, 45.52004 ] } }
,
{ "type": "Feature", "properties": { "longitude": -81.291269, "latitude": 42.91097, "good url": "http:\/\/directory.occupy.net\/occupation\/ca\/on\/occupy-london-ont", "name": "Occupy London ONT" }, "geometry": { "type": "Point", "coordinates": [ -81.29127, 42.91097 ] } }
,
{ "type": "Feature", "properties": { "longitude": -114.345116, "latitude": 43.689877, "good url": "http:\/\/directory.occupy.net\/occupation\/us\/id\/occupy-teton-valley", "name": "Occupy Teton Valley" }, "geometry": { "type": "Point", "coordinates": [ -114.34512, 43.68988 ] } }
,
{ "type": "Feature", "properties": { "longitude": 25.9573, "latitude": 43.834922, "good url": "http:\/\/directory.occupy.net\/occupation\/bg\/occupy-ruse-okupiray-ruse", "name": "Occupy Ruse (???????? ????)" }, "geometry": { "type": "Point", "coordinates": [ 25.9573, 43.83492 ] } }
,
{ "type": "Feature", "properties": { "longitude": 17.047665, "latitude": -22.521429, "good url": "http:\/\/directory.occupy.net\/occupation\/na\/occupy-windhoek", "name": "Occupy Windhoek" }, "geometry": { "type": "Point", "coordinates": [ 17.047665, -22.521429 ] } }
,
{ "type": "Feature", "properties": { "longitude": 30.058769, "latitude": -1.9501, "good url": "http:\/\/directory.occupy.net\/occupation\/rw\/occupy-kigali", "name": "Occupy Kigali" }, "geometry": { "type": "Point", "coordinates": [ 30.058769, -1.9501 ] } }
,
{ "type": "Feature", "properties": { "longitude": -122.025192, "latitude": 37.980808, "good url": "http:\/\/directory.occupy.net\/occupation\/us\/ca\/occupy-contra-costa-county", "name": "Occupy Contra Costa County" }, "geometry": { "type": "Point", "coordinates": [ -122.02519, 37.980808 ] } }
,
{ "type": "Feature", "properties": { "longitude": -118.161399, "latitude": 33.885, "good url": "http:\/\/directory.occupy.net\/occupation\/us\/ca\/occupy-paramount", "name": "Occupy Paramount" }, "geometry": { "type": "Point", "coordinates": [ -118.1614, 33.885 ] } }
,
{ "type": "Feature", "properties": { "longitude": -82.984459, "latitude": 30.296005, "good url": "http:\/\/directory.occupy.net\/occupation\/us\/fl\/occupy-live-oak", "name": "Occupy Live Oak" }, "geometry": { "type": "Point", "coordinates": [ -82.98446, 30.296 ] } }
,
{ "type": "Feature", "properties": { "longitude": -116.547789, "latitude": 48.272995, "good url": "http:\/\/directory.occupy.net\/occupation\/us\/id\/occupy-sandpoint", "name": "Occupy Sandpoint" }, "geometry": { "type": "Point", "coordinates": [ -116.54779, 48.27299 ] } }
,
{ "type": "Feature", "properties": { "longitude": -85.180224, "latitude": 42.31617, "good url": "http:\/\/directory.occupy.net\/occupation\/us\/mi\/occupy-battle-creek", "name": "Occupy Battle Creek" }, "geometry": { "type": "Point", "coordinates": [ -85.18022, 42.31617 ] } }
,
{ "type": "Feature", "properties": { "longitude": 3.42348, "latitude": 6.43918, "good url": "http:\/\/directory.occupy.net\/occupation\/ng\/occupy-lagos", "name": "Occupy Lagos" }, "geometry": { "type": "Point", "coordinates": [ 3.42348, 6.43918 ] } }
,
{ "type": "Feature", "properties": { "longitude": -0.20092, "latitude": 5.55856, "good url": "http:\/\/directory.occupy.net\/occupation\/gh\/occupy-accra", "name": "Occupy Accra" }, "geometry": { "type": "Point", "coordinates": [ -0.20092, 5.55856 ] } }
,
{ "type": "Feature", "properties": { "longitude": 20.91667, "latitude": 44.01667, "good url": "http:\/\/directory.occupy.net\/occupation\/rs\/occupy-kragujevac", "name": "Occupy Kragujevac" }, "geometry": { "type": "Point", "coordinates": [ 20.91667, 44.01667 ] } }
,
{ "type": "Feature", "properties": { "longitude": -71.411994, "latitude": 41.823875, "good url": "http:\/\/directory.occupy.net\/occupation\/us\/ri\/occupy-providence", "name": "Occupy Providence" }, "geometry": { "type": "Point", "coordinates": [ -71.411994, 41.82387 ] } }
,
{ "type": "Feature", "properties": { "longitude": -76.345119, "latitude": 37.027795, "good url": "http:\/\/directory.occupy.net\/occupation\/us\/va\/occupy-hampton-va", "name": "Occupy Hampton VA" }, "geometry": { "type": "Point", "coordinates": [ -76.34512, 37.02779 ] } }
,
{ "type": "Feature", "properties": { "longitude": -82.877409, "latitude": 42.596605, "good url": "http:\/\/directory.occupy.net\/occupation\/us\/mi\/occupy-mount-clemons", "name": "Occupy Mount Clemons" }, "geometry": { "type": "Point", "coordinates": [ -82.87741, 42.5966 ] } }
,
{ "type": "Feature", "properties": { "longitude": -74.417187, "latitude": 40.584949, "good url": "http:\/\/directory.occupy.net\/occupation\/us\/nj\/occupy-south-plainfield", "name": "Occupy South Plainfield" }, "geometry": { "type": "Point", "coordinates": [ -74.41719, 40.58495 ] } }
,
{ "type": "Feature", "properties": { "longitude": -121.967299, "latitude": 37.776864, "good url": "http:\/\/directory.occupy.net\/occupation\/us\/ca\/occupy-san-ramon", "name": "Occupy San Ramon" }, "geometry": { "type": "Point", "coordinates": [ -121.9673, 37.77686 ] } }
,
{ "type": "Feature", "properties": { "longitude": -72.295333, "latitude": 41.001077, "good url": "http:\/\/directory.occupy.net\/occupation\/us\/ny\/occupy-the-hamptons", "name": "Occupy The Hamptons" }, "geometry": { "type": "Point", "coordinates": [ -72.29533, 41.00108 ] } }
,
{ "type": "Feature", "properties": { "longitude": -81.103394, "latitude": 38.05254, "good url": "http:\/\/directory.occupy.net\/occupation\/us\/wv\/occupy-fayetteville-wv", "name": "Occupy Fayetteville WV" }, "geometry": { "type": "Point", "coordinates": [ -81.10339, 38.05254 ] } }
,
{ "type": "Feature", "properties": { "longitude": -122.580369, "latitude": 47.328, "good url": "http:\/\/directory.occupy.net\/occupation\/us\/wa\/occupy-gig-harbor", "name": "Occupy Gig Harbor" }, "geometry": { "type": "Point", "coordinates": [ -122.58037, 47.328 ] } }
,
{ "type": "Feature", "properties": { "longitude": -78.507324, "latitude": 35.97508, "good url": "http:\/\/directory.occupy.net\/occupation\/us\/nc\/occupy-wake-forest", "name": "Occupy Wake Forest" }, "geometry": { "type": "Point", "coordinates": [ -78.50732, 35.97508 ] } }
,
{ "type": "Feature", "properties": { "longitude": 144.794998, "latitude": 13.4615, "good url": "http:\/\/directory.occupy.net\/occupation\/us\/gu\/occupy-barrigada", "name": "Occupy Barrigada" }, "geometry": { "type": "Point", "coordinates": [ 144.795, 13.4615 ] } }
,
{ "type": "Feature", "properties": { "longitude": -96.816894, "latitude": 32.95398, "good url": "http:\/\/directory.occupy.net\/occupation\/us\/tx\/occupy-addison", "name": "Occupy Addison" }, "geometry": { "type": "Point", "coordinates": [ -96.81689, 32.95398 ] } }
,
{ "type": "Feature", "properties": { "longitude": -74.007124, "latitude": 40.71455, "good url": "http:\/\/directory.occupy.net\/occupation\/us\/ny\/occupy-hood-new-york", "name": "Occupy The Hood" }, "geometry": { "type": "Point", "coordinates": [ -74.00712, 40.71455 ] } }
,
{ "type": "Feature", "properties": { "longitude": -83.142444, "latitude": 42.488155, "good url": "http:\/\/directory.occupy.net\/occupation\/us\/mi\/occupy-royal-oak", "name": "Occupy Royal Oak" }, "geometry": { "type": "Point", "coordinates": [ -83.14244, 42.488155 ] } }
,
{ "type": "Feature", "properties": { "longitude": -97.495529, "latitude": 25.899585, "good url": "http:\/\/directory.occupy.net\/occupation\/us\/tx\/occupy-brownsville", "name": "Occupy Brownsville" }, "geometry": { "type": "Point", "coordinates": [ -97.495529, 25.89958 ] } }
,
{ "type": "Feature", "properties": { "longitude": -94.704829, "latitude": 37.410565, "good url": "http:\/\/directory.occupy.net\/occupation\/us\/ks\/occupy-pittsburg-ks", "name": "Occupy Pittsburg KS" }, "geometry": { "type": "Point", "coordinates": [ -94.70483, 37.410565 ] } }
,
{ "type": "Feature", "properties": { "longitude": -80.134904, "latitude": 25.793095, "good url": "http:\/\/directory.occupy.net\/occupation\/us\/fl\/occupy-miami-beach", "name": "Occupy Miami Beach" }, "geometry": { "type": "Point", "coordinates": [ -80.1349, 25.793095 ] } }
,
{ "type": "Feature", "properties": { "longitude": -90.375225, "latitude": 38.42339, "good url": "http:\/\/directory.occupy.net\/occupation\/us\/mo\/occupy-arnold", "name": "Occupy Arnold" }, "geometry": { "type": "Point", "coordinates": [ -90.37522, 38.42339 ] } }
,
{ "type": "Feature", "properties": { "longitude": -122.394081, "latitude": 37.77301, "good url": "http:\/\/directory.occupy.net\/occupation\/us\/ca\/occupy-mission-bay", "name": "Occupy Mission Bay" }, "geometry": { "type": "Point", "coordinates": [ -122.39408, 37.77301 ] } }
,
{ "type": "Feature", "properties": { "longitude": 28.18763, "latitude": -25.745874, "good url": "http:\/\/directory.occupy.net\/occupation\/za\/occupy-pretoria", "name": "Occupy Pretoria" }, "geometry": { "type": "Point", "coordinates": [ 28.18763, -25.745874 ] } }
,
{ "type": "Feature", "properties": { "longitude": 10.17263, "latitude": 36.798672, "good url": "http:\/\/directory.occupy.net\/occupation\/tn\/occupy-tunis", "name": "Occupy Tunis" }, "geometry": { "type": "Point", "coordinates": [ 10.17263, 36.79867 ] } }
,
{ "type": "Feature", "properties": { "longitude": -17.45191, "latitude": 14.68667, "good url": "http:\/\/directory.occupy.net\/occupation\/sn\/occupy-dakar", "name": "Occupy Dakar" }, "geometry": { "type": "Point", "coordinates": [ -17.45191, 14.68667 ] } }
,
{ "type": "Feature", "properties": { "longitude": 31.035125, "latitude": -29.855744, "good url": "http:\/\/directory.occupy.net\/occupation\/za\/occupy-durban", "name": "Occupy Durban" }, "geometry": { "type": "Point", "coordinates": [ 31.03512, -29.855744 ] } }
,
{ "type": "Feature", "properties": { "longitude": -72.924979, "latitude": 41.30713, "good url": "http:\/\/directory.occupy.net\/occupation\/us\/ct\/occupy-new-haven", "name": "Occupy New Haven" }, "geometry": { "type": "Point", "coordinates": [ -72.92498, 41.30713 ] } }
,
{ "type": "Feature", "properties": { "longitude": -121.290754, "latitude": 37.95368, "good url": "http:\/\/directory.occupy.net\/occupation\/us\/ca\/occupy-stockton", "name": "Occupy Stockton" }, "geometry": { "type": "Point", "coordinates": [ -121.29075, 37.95368 ] } }
,
{ "type": "Feature", "properties": { "longitude": 36.806261, "latitude": -1.277298, "good url": "http:\/\/directory.occupy.net\/occupation\/ke\/occupy-nairobi-0", "name": "Occupy Nairobi" }, "geometry": { "type": "Point", "coordinates": [ 36.80626, -1.277298 ] } }
,
{ "type": "Feature", "properties": { "longitude": 31.25536, "latitude": 30.08374, "good url": "http:\/\/directory.occupy.net\/occupation\/eg\/occupy-cairo", "name": "Occupy Cairo" }, "geometry": { "type": "Point", "coordinates": [ 31.25536, 30.08374 ] } }
,
{ "type": "Feature", "properties": { "longitude": -120.044819, "latitude": 39.0214, "good url": "http:\/\/directory.occupy.net\/occupation\/us\/ca\/occupy-south-lake-tahoe-tahoe-lake-", "name": "Occupy South Lake Tahoe \/ Tahoe \/ Lake Tahoe" }, "geometry": { "type": "Point", "coordinates": [ -120.04482, 39.0214 ] } }
,
{ "type": "Feature", "properties": { "longitude": -90.888714, "latitude": 43.557135, "good url": "http:\/\/directory.occupy.net\/occupation\/us\/wi\/occupy-viroqua", "name": "Occupy Viroqua" }, "geometry": { "type": "Point", "coordinates": [ -90.88871, 43.55713 ] } }
,
{ "type": "Feature", "properties": { "longitude": -84.29296, "latitude": 37.570189, "good url": "http:\/\/directory.occupy.net\/occupation\/us\/ky\/occupy-berea", "name": "Occupy Berea" }, "geometry": { "type": "Point", "coordinates": [ -84.29296, 37.570189 ] } }
,
{ "type": "Feature", "properties": { "longitude": -74.174184, "latitude": 40.73197, "good url": "http:\/\/directory.occupy.net\/occupation\/us\/nj\/occupy-newark-nj", "name": "Occupy Newark NJ" }, "geometry": { "type": "Point", "coordinates": [ -74.17418, 40.73197 ] } }
,
{ "type": "Feature", "properties": { "longitude": -82.574374, "latitude": 27.41601, "good url": "http:\/\/directory.occupy.net\/occupation\/us\/fl\/occupy-sarasota", "name": "Occupy Sarasota" }, "geometry": { "type": "Point", "coordinates": [ -82.574374, 27.41601 ] } }
,
{ "type": "Feature", "properties": { "longitude": -84.531693, "latitude": 42.718708, "good url": "http:\/\/directory.occupy.net\/occupation\/us\/mi\/occupy-lansing", "name": "Occupy Lansing" }, "geometry": { "type": "Point", "coordinates": [ -84.531693, 42.71871 ] } }
,
{ "type": "Feature", "properties": { "longitude": -89.643604, "latitude": 39.801055, "good url": "http:\/\/directory.occupy.net\/occupation\/us\/il\/occupy-springfield-il", "name": "Occupy Springfield IL" }, "geometry": { "type": "Point", "coordinates": [ -89.6436, 39.80105 ] } }
,
{ "type": "Feature", "properties": { "longitude": -95.940469, "latitude": 41.260675, "good url": "http:\/\/directory.occupy.net\/occupation\/us\/ne\/occupy-omaha", "name": "Occupy Omaha" }, "geometry": { "type": "Point", "coordinates": [ -95.94047, 41.26067 ] } }
,
{ "type": "Feature", "properties": { "longitude": -71.207609, "latitude": 41.625095, "good url": "http:\/\/directory.occupy.net\/occupation\/us\/ri\/occupy-tiverton", "name": "Occupy Tiverton" }, "geometry": { "type": "Point", "coordinates": [ -71.20761, 41.625095 ] } }
,
{ "type": "Feature", "properties": { "longitude": -122.270539, "latitude": 37.869885, "good url": "http:\/\/directory.occupy.net\/occupation\/us\/ca\/occupy-berkeley", "name": "Occupy Berkeley" }, "geometry": { "type": "Point", "coordinates": [ -122.27054, 37.86988 ] } }
,
{ "type": "Feature", "properties": { "longitude": -93.264929, "latitude": 44.979035, "good url": "http:\/\/directory.occupy.net\/occupation\/us\/mn\/occupy-minneapolis", "name": "Occupy Minneapolis" }, "geometry": { "type": "Point", "coordinates": [ -93.26493, 44.97903 ] } }
,
{ "type": "Feature", "properties": { "longitude": -97.018699, "latitude": 38.97024, "good url": "http:\/\/directory.occupy.net\/occupation\/us\/ks\/occupy-chapman", "name": "Occupy Chapman" }, "geometry": { "type": "Point", "coordinates": [ -97.0187, 38.97024 ] } }
,
{ "type": "Feature", "properties": { "longitude": -71.312844, "latitude": 42.64589, "good url": "http:\/\/directory.occupy.net\/occupation\/us\/ma\/occupy-lowell", "name": "Occupy Lowell" }, "geometry": { "type": "Point", "coordinates": [ -71.31284, 42.64589 ] } }
,
{ "type": "Feature", "properties": { "longitude": -79.888454, "latitude": 43.26099, "good url": "http:\/\/directory.occupy.net\/occupation\/ca\/on\/occupy-hamilton-can", "name": "Occupy Hamilton CAN" }, "geometry": { "type": "Point", "coordinates": [ -79.88845, 43.26099 ] } }
,
{ "type": "Feature", "properties": { "longitude": -75.543969, "latitude": 42.827005, "good url": "http:\/\/directory.occupy.net\/occupation\/us\/ny\/occupy-hamilton-ny", "name": "Occupy Hamilton NY" }, "geometry": { "type": "Point", "coordinates": [ -75.543969, 42.827 ] } }
,
{ "type": "Feature", "properties": { "longitude": -122.675629, "latitude": 45.511795, "good url": "http:\/\/directory.occupy.net\/occupation\/us\/or\/occupy-the-hood-portland-or", "name": "Occupy The Hood" }, "geometry": { "type": "Point", "coordinates": [ -122.67563, 45.51179 ] } }
,
{ "type": "Feature", "properties": { "longitude": -70.251734, "latitude": 43.63761, "good url": "http:\/\/directory.occupy.net\/occupation\/us\/me\/occupy-south-portland-me", "name": "Occupy South Portland ME" }, "geometry": { "type": "Point", "coordinates": [ -70.25173, 43.63761 ] } }
,
{ "type": "Feature", "properties": { "longitude": 23.321054, "latitude": 42.714701, "good url": "http:\/\/directory.occupy.net\/occupation\/bg\/occupy-sofia", "name": "Occupy Sofia" }, "geometry": { "type": "Point", "coordinates": [ 23.32105, 42.7147 ] } }
,
{ "type": "Feature", "properties": { "longitude": 24.708344, "latitude": 41.577824, "good url": "http:\/\/directory.occupy.net\/occupation\/bg\/occupy-smolyan", "name": "Occupy Smolyan" }, "geometry": { "type": "Point", "coordinates": [ 24.708344, 41.577824 ] } }
,
{ "type": "Feature", "properties": { "longitude": -86.149964, "latitude": 39.76691, "good url": "http:\/\/directory.occupy.net\/occupation\/us\/in\/occupy-indianapolis", "name": "Occupy Indianapolis" }, "geometry": { "type": "Point", "coordinates": [ -86.14996, 39.76691 ] } }
,
{ "type": "Feature", "properties": { "longitude": -122.273024, "latitude": 37.805065, "good url": "http:\/\/directory.occupy.net\/occupation\/us\/ca\/occupy-oakland", "name": "Occupy Oakland" }, "geometry": { "type": "Point", "coordinates": [ -122.27302, 37.80506 ] } }
,
{ "type": "Feature", "properties": { "longitude": 1.2949, "latitude": 52.622495, "good url": "http:\/\/directory.occupy.net\/occupation\/gb\/occupy-norwich", "name": "Occupy Norwich" }, "geometry": { "type": "Point", "coordinates": [ 1.2949, 52.62249 ] } }
,
{ "type": "Feature", "properties": { "longitude": -81.864019, "latitude": 41.14032, "good url": "http:\/\/directory.occupy.net\/occupation\/us\/oh\/occupy-medina", "name": "Occupy Medina" }, "geometry": { "type": "Point", "coordinates": [ -81.86402, 41.14032 ] } }
,
{ "type": "Feature", "properties": { "longitude": -80.814689, "latitude": 35.582525, "good url": "http:\/\/directory.occupy.net\/occupation\/us\/nc\/occupy-mooresville", "name": "Occupy Mooresville" }, "geometry": { "type": "Point", "coordinates": [ -80.81469, 35.582525 ] } }
,
{ "type": "Feature", "properties": { "longitude": -93.747274, "latitude": 32.514615, "good url": "http:\/\/directory.occupy.net\/occupation\/us\/la\/occupy-shreveport", "name": "Occupy Shreveport" }, "geometry": { "type": "Point", "coordinates": [ -93.74727, 32.51461 ] } }
,
{ "type": "Feature", "properties": { "longitude": -3.180734, "latitude": 51.48125, "good url": "http:\/\/directory.occupy.net\/occupation\/gb\/occupy-cardiff", "name": "Occupy Cardiff" }, "geometry": { "type": "Point", "coordinates": [ -3.180734, 51.48125 ] } }
,
{ "type": "Feature", "properties": { "longitude": -122.059949, "latitude": 37.89734, "good url": "http:\/\/directory.occupy.net\/occupation\/us\/ca\/occupy-walnut-creek", "name": "Occupy Walnut Creek" }, "geometry": { "type": "Point", "coordinates": [ -122.05995, 37.89734 ] } }
,
{ "type": "Feature", "properties": { "longitude": -122.997961, "latitude": 38.501997, "good url": "http:\/\/directory.occupy.net\/occupation\/us\/ca\/occupy-west-sonoma-county", "name": "Occupy West Sonoma County" }, "geometry": { "type": "Point", "coordinates": [ -122.99796, 38.502 ] } }
,
{ "type": "Feature", "properties": { "longitude": -122.559658, "latitude": 48.157766, "good url": "http:\/\/directory.occupy.net\/occupation\/us\/wa\/occupy-whidbey-island", "name": "Occupy Whidbey Island" }, "geometry": { "type": "Point", "coordinates": [ -122.55966, 48.15777 ] } }
,
{ "type": "Feature", "properties": { "longitude": -118.337209, "latitude": 34.101555, "good url": "http:\/\/directory.occupy.net\/occupation\/us\/ca\/occupy-hollywood-ca", "name": "Occupy Hollywood CA" }, "geometry": { "type": "Point", "coordinates": [ -118.33721, 34.10155 ] } }
,
{ "type": "Feature", "properties": { "longitude": 106.82782, "latitude": -6.17144, "good url": "http:\/\/directory.occupy.net\/occupation\/id\/occupy-jakarta", "name": "Occupy Jakarta" }, "geometry": { "type": "Point", "coordinates": [ 106.82782, -6.17144 ] } }
,
{ "type": "Feature", "properties": { "longitude": -86.149964, "latitude": 39.76691, "good url": "http:\/\/directory.occupy.net\/occupation\/us\/in\/indyows", "name": "IndyOWS" }, "geometry": { "type": "Point", "coordinates": [ -86.14996, 39.76691 ] } }
,
{ "type": "Feature", "properties": { "longitude": -76.79731, "latitude": 18.015711, "good url": "http:\/\/directory.occupy.net\/occupation\/jm\/occupy-kingston-jamaica", "name": "Occupy Kingston Jamaica" }, "geometry": { "type": "Point", "coordinates": [ -76.79731, 18.01571 ] } }
,
{ "type": "Feature", "properties": { "longitude": -118.342369, "latitude": 46.07038, "good url": "http:\/\/directory.occupy.net\/occupation\/us\/wa\/occupy-walla-walla", "name": "Occupy Walla Walla" }, "geometry": { "type": "Point", "coordinates": [ -118.34237, 46.07038 ] } }
,
{ "type": "Feature", "properties": { "longitude": -5.271255, "latitude": 50.401205, "good url": "http:\/\/directory.occupy.net\/occupation\/gb\/cornwall\/occupy-cornwall", "name": "Occupy Cornwall" }, "geometry": { "type": "Point", "coordinates": [ -5.271255, 50.4012 ] } }
,
{ "type": "Feature", "properties": { "longitude": -14.01805, "latitude": 65.25135, "good url": "http:\/\/directory.occupy.net\/occupation\/is\/occupy-seydisfjordur-samstada", "name": "Occupy Seydisfjordur | Samstaða" }, "geometry": { "type": "Point", "coordinates": [ -14.01805, 65.25135 ] } }
,
{ "type": "Feature", "properties": { "longitude": 2.443905, "latitude": 41.541515, "good url": "http:\/\/directory.occupy.net\/occupation\/es\/occupy-mataro-15m", "name": "Occupy Mataró 15M" }, "geometry": { "type": "Point", "coordinates": [ 2.443905, 41.541515 ] } }
,
{ "type": "Feature", "properties": { "longitude": -4.778403, "latitude": 37.87794, "good url": "http:\/\/directory.occupy.net\/occupation\/es\/occupy-cordoba", "name": "Occupy Córdoba" }, "geometry": { "type": "Point", "coordinates": [ -4.778403, 37.87794 ] } }
,
{ "type": "Feature", "properties": { "longitude": -72.545034, "latitude": 46.34018, "good url": "http:\/\/directory.occupy.net\/occupation\/ca\/qc\/occupy-trois-rivieres", "name": "Occupy Trois-Rivières" }, "geometry": { "type": "Point", "coordinates": [ -72.54503, 46.34018 ] } }
,
{ "type": "Feature", "properties": { "longitude": -96.678689, "latitude": 34.77507, "good url": "http:\/\/directory.occupy.net\/occupation\/us\/ok\/occupy-ada-southern-oklahoma", "name": "Occupy Ada \/ Southern Oklahoma" }, "geometry": { "type": "Point", "coordinates": [ -96.67869, 34.77507 ] } }
,
{ "type": "Feature", "properties": { "longitude": -8.396744, "latitude": 43.370155, "good url": "http:\/\/directory.occupy.net\/occupation\/es\/occupy-coruna", "name": "Occupy A Coruña" }, "geometry": { "type": "Point", "coordinates": [ -8.39674, 43.37015 ] } }
,
{ "type": "Feature", "properties": { "longitude": -81.105844, "latitude": 40.921365, "good url": "http:\/\/directory.occupy.net\/occupation\/us\/oh\/occupy-alliance", "name": "Occupy Alliance" }, "geometry": { "type": "Point", "coordinates": [ -81.105844, 40.92136 ] } }
,
{ "type": "Feature", "properties": { "longitude": -76.489934, "latitude": 38.9767, "good url": "http:\/\/directory.occupy.net\/occupation\/us\/md\/occupy-annapolis", "name": "Occupy Annapolis" }, "geometry": { "type": "Point", "coordinates": [ -76.48993, 38.9767 ] } }
,
{ "type": "Feature", "properties": { "longitude": -81.722139, "latitude": 33.561645, "good url": "http:\/\/directory.occupy.net\/occupation\/us\/sc\/occupy-aiken", "name": "Occupy Aiken" }, "geometry": { "type": "Point", "coordinates": [ -81.72214, 33.561645 ] } }
,
{ "type": "Feature", "properties": { "longitude": -81.514059, "latitude": 41.084195, "good url": "http:\/\/directory.occupy.net\/occupation\/us\/oh\/occupy-akron", "name": "Occupy Akron" }, "geometry": { "type": "Point", "coordinates": [ -81.51406, 41.084195 ] } }
,
{ "type": "Feature", "properties": { "longitude": -157.857614, "latitude": 21.30477, "good url": "http:\/\/directory.occupy.net\/occupation\/us\/hi\/deoccupy-honolulu", "name": "(de)Occupy Honolulu" }, "geometry": { "type": "Point", "coordinates": [ -157.85761, 21.30477 ] } }
,
{ "type": "Feature", "properties": { "longitude": -93.620199, "latitude": 42.025345, "good url": "http:\/\/directory.occupy.net\/occupation\/us\/ia\/occupy-ames", "name": "Occupy Ames" }, "geometry": { "type": "Point", "coordinates": [ -93.6202, 42.02534 ] } }
,
{ "type": "Feature", "properties": { "longitude": -68.524669, "latitude": 48.449295, "good url": "http:\/\/directory.occupy.net\/occupation\/ca\/qc\/occupons-rimouski-occupy-rimouski", "name": "Occupons Rimouski" }, "geometry": { "type": "Point", "coordinates": [ -68.52467, 48.44929 ] } }
,
{ "type": "Feature", "properties": { "longitude": -93.620199, "latitude": 42.025345, "good url": "http:\/\/directory.occupy.net\/occupation\/us\/ia\/occupy-ames-isu", "name": "Occupy Ames ISU" }, "geometry": { "type": "Point", "coordinates": [ -93.6202, 42.02534 ] } }
,
{ "type": "Feature", "properties": { "longitude": -75.470204, "latitude": 40.60257, "good url": "http:\/\/directory.occupy.net\/occupation\/us\/pa\/occupy-allentown", "name": "Occupy Allentown" }, "geometry": { "type": "Point", "coordinates": [ -75.4702, 40.60257 ] } }
,
{ "type": "Feature", "properties": { "longitude": 138.599884, "latitude": -34.926102, "good url": "http:\/\/directory.occupy.net\/occupation\/au\/sa\/occupy-adelaide", "name": "Occupy Adelaide" }, "geometry": { "type": "Point", "coordinates": [ 138.59988, -34.926102 ] } }
,
{ "type": "Feature", "properties": { "longitude": -83.748479, "latitude": 42.281875, "good url": "http:\/\/directory.occupy.net\/occupation\/us\/mi\/occupy-ann-arbor", "name": "Occupy Ann Arbor" }, "geometry": { "type": "Point", "coordinates": [ -83.74848, 42.28187 ] } }
,
{ "type": "Feature", "properties": { "longitude": 87.80413, "latitude": 25.28287, "good url": "http:\/\/directory.occupy.net\/occupation\/in\/occupy-ahmedabad", "name": "Occupy Ahmedabad" }, "geometry": { "type": "Point", "coordinates": [ 87.80413, 25.28287 ] } }
,
{ "type": "Feature", "properties": { "longitude": -90.183834, "latitude": 38.89086, "good url": "http:\/\/directory.occupy.net\/occupation\/us\/il\/occupy-alton", "name": "Occupy Alton" }, "geometry": { "type": "Point", "coordinates": [ -90.183834, 38.89086 ] } }
,
{ "type": "Feature", "properties": { "longitude": -78.398904, "latitude": 40.50719, "good url": "http:\/\/directory.occupy.net\/occupation\/us\/pa\/occupy-altoona", "name": "Occupy Altoona" }, "geometry": { "type": "Point", "coordinates": [ -78.3989, 40.50719 ] } }
,
{ "type": "Feature", "properties": { "longitude": -120.55011, "latitude": 38.4617, "good url": "http:\/\/directory.occupy.net\/occupation\/us\/ca\/occupy-amador-county", "name": "Occupy Amador County" }, "geometry": { "type": "Point", "coordinates": [ -120.55011, 38.4617 ] } }
,
{ "type": "Feature", "properties": { "longitude": -101.833894, "latitude": 35.207255, "good url": "http:\/\/directory.occupy.net\/occupation\/us\/tx\/occupy-amarillo", "name": "Occupy Amarillo" }, "geometry": { "type": "Point", "coordinates": [ -101.83389, 35.20725 ] } }
,
{ "type": "Feature", "properties": { "longitude": -80.230144, "latitude": 40.591845, "good url": "http:\/\/directory.occupy.net\/occupation\/us\/pa\/occupy-ambridge", "name": "Occupy Ambridge" }, "geometry": { "type": "Point", "coordinates": [ -80.23014, 40.591845 ] } }
,
{ "type": "Feature", "properties": { "longitude": 4.39771, "latitude": 51.222085, "good url": "http:\/\/directory.occupy.net\/occupation\/be\/occupy-antwerp", "name": "Occupy Antwerp" }, "geometry": { "type": "Point", "coordinates": [ 4.39771, 51.22208 ] } }
,
{ "type": "Feature", "properties": { "longitude": -123.107764, "latitude": 44.63548, "good url": "http:\/\/directory.occupy.net\/occupation\/us\/or\/occupy-albany-or", "name": "Occupy Albany OR" }, "geometry": { "type": "Point", "coordinates": [ -123.10776, 44.63548 ] } }
,
{ "type": "Feature", "properties": { "longitude": -95.366344, "latitude": 45.889393, "good url": "http:\/\/directory.occupy.net\/occupation\/us\/mn\/occupy-alexandria-mn", "name": "Occupy Alexandria MN" }, "geometry": { "type": "Point", "coordinates": [ -95.36634, 45.889393 ] } }
,
{ "type": "Feature", "properties": { "longitude": -77.043414, "latitude": 38.804605, "good url": "http:\/\/directory.occupy.net\/occupation\/us\/va\/occupy-alexandria-va", "name": "Occupy Alexandria VA" }, "geometry": { "type": "Point", "coordinates": [ -77.04341, 38.8046 ] } }
,
{ "type": "Feature", "properties": { "longitude": 7.011572, "latitude": 50.738798, "good url": "http:\/\/directory.occupy.net\/occupation\/de\/occupy-alfter", "name": "Occupy Alfter" }, "geometry": { "type": "Point", "coordinates": [ 7.011572, 50.7388 ] } }
,
{ "type": "Feature", "properties": { "longitude": -122.611734, "latitude": 48.517485, "good url": "http:\/\/directory.occupy.net\/occupation\/us\/wa\/occupy-anacortes", "name": "Occupy Anacortes" }, "geometry": { "type": "Point", "coordinates": [ -122.61173, 48.51748 ] } }
,
{ "type": "Feature", "properties": { "longitude": -99.741424, "latitude": 32.449175, "good url": "http:\/\/directory.occupy.net\/occupation\/us\/tx\/occupy-abilene", "name": "Occupy Abilene" }, "geometry": { "type": "Point", "coordinates": [ -99.741424000215602, 32.44917 ] } }
,
{ "type": "Feature", "properties": { "longitude": -117.915719, "latitude": 33.83276, "good url": "http:\/\/directory.occupy.net\/occupation\/us\/ca\/occupy-anaheim", "name": "Occupy Anaheim" }, "geometry": { "type": "Point", "coordinates": [ -117.91572, 33.83276 ] } }
,
{ "type": "Feature", "properties": { "longitude": -99.132851, "latitude": 19.4319, "good url": "http:\/\/directory.occupy.net\/occupation\/mx\/df\/occupy-acampada-sur", "name": "Occupy Acampada Sur" }, "geometry": { "type": "Point", "coordinates": [ -99.13285, 19.4319 ] } }
,
{ "type": "Feature", "properties": { "longitude": -149.858384, "latitude": 61.21755, "good url": "http:\/\/directory.occupy.net\/occupation\/us\/ak\/occupy-anchorage", "name": "Occupy Anchorage" }, "geometry": { "type": "Point", "coordinates": [ -149.85838, 61.21755 ] } }
,
{ "type": "Feature", "properties": { "longitude": -85.678689, "latitude": 40.102165, "good url": "http:\/\/directory.occupy.net\/occupation\/us\/in\/occupy-anderson", "name": "Occupy Anderson IN" }, "geometry": { "type": "Point", "coordinates": [ -85.678689, 40.10216 ] } }
,
{ "type": "Feature", "properties": { "longitude": -82.649579, "latitude": 34.50044, "good url": "http:\/\/directory.occupy.net\/occupation\/us\/sc\/occupy-anderson-sc", "name": "Occupy Anderson SC" }, "geometry": { "type": "Point", "coordinates": [ -82.64958, 34.50044 ] } }
,
{ "type": "Feature", "properties": { "longitude": -86.971279, "latitude": 34.8045, "good url": "http:\/\/directory.occupy.net\/occupation\/us\/al\/occupy-athens-al", "name": "Occupy Athens AL" }, "geometry": { "type": "Point", "coordinates": [ -86.97128, 34.8045 ] } }
,
{ "type": "Feature", "properties": { "longitude": -83.884914, "latitude": 43.59527, "good url": "http:\/\/directory.occupy.net\/occupation\/us\/mi\/occupy-bay-city", "name": "Occupy Bay City" }, "geometry": { "type": "Point", "coordinates": [ -83.88491, 43.59527 ] } }
,
{ "type": "Feature", "properties": { "longitude": -83.373255, "latitude": 33.958132, "good url": "http:\/\/directory.occupy.net\/occupation\/us\/ga\/occupy-athens-ga", "name": "Occupy Athens GA" }, "geometry": { "type": "Point", "coordinates": [ -83.37325, 33.95813 ] } }
,
{ "type": "Feature", "properties": { "longitude": -87.744202, "latitude": 44.632801, "good url": "http:\/\/directory.occupy.net\/occupation\/us\/wi\/occupy-bay-view", "name": "Occupy Bay View" }, "geometry": { "type": "Point", "coordinates": [ -87.7442, 44.632801 ] } }
,
{ "type": "Feature", "properties": { "longitude": -82.10444, "latitude": 39.328502, "good url": "http:\/\/directory.occupy.net\/occupation\/us\/oh\/occupy-athens-oh", "name": "Occupy Athens OH" }, "geometry": { "type": "Point", "coordinates": [ -82.10444, 39.3285 ] } }
,
{ "type": "Feature", "properties": { "longitude": -68.770775, "latitude": 44.80172, "good url": "http:\/\/directory.occupy.net\/occupation\/us\/me\/occupy-bangor-me", "name": "Occupy Bangor ME" }, "geometry": { "type": "Point", "coordinates": [ -68.77077, 44.80172 ] } }
,
{ "type": "Feature", "properties": { "longitude": -104.397559, "latitude": 32.842925, "good url": "http:\/\/directory.occupy.net\/occupation\/us\/nm\/occupy-artesia", "name": "Occupy Artesia" }, "geometry": { "type": "Point", "coordinates": [ -104.39756, 32.842925 ] } }
,
{ "type": "Feature", "properties": { "longitude": -5.669736, "latitude": 54.662802, "good url": "http:\/\/directory.occupy.net\/occupation\/gb\/occupy-bangor-north-wales", "name": "Occupy Bangor" }, "geometry": { "type": "Point", "coordinates": [ -5.669736, 54.6628 ] } }
,
{ "type": "Feature", "properties": { "longitude": -74.013009, "latitude": 40.21703, "good url": "http:\/\/directory.occupy.net\/occupation\/us\/nj\/occupy-asbury-park", "name": "Occupy Asbury Park" }, "geometry": { "type": "Point", "coordinates": [ -74.01301, 40.21703 ] } }
,
{ "type": "Feature", "properties": { "longitude": -69.776218, "latitude": 44.318036, "good url": "http:\/\/directory.occupy.net\/occupation\/us\/me\/occupy-augusta-me", "name": "Occupy Augusta ME" }, "geometry": { "type": "Point", "coordinates": [ -69.77622, 44.31804 ] } }
,
{ "type": "Feature", "properties": { "longitude": -84.294554, "latitude": 34.07537, "good url": "http:\/\/directory.occupy.net\/occupation\/us\/ga\/occupy-alpharetta", "name": "Occupy Alpharetta" }, "geometry": { "type": "Point", "coordinates": [ -84.29455, 34.07537 ] } }
,
{ "type": "Feature", "properties": { "longitude": -122.244739, "latitude": 37.766585, "good url": "http:\/\/directory.occupy.net\/occupation\/us\/ca\/occupy-alameda", "name": "Occupy Alameda" }, "geometry": { "type": "Point", "coordinates": [ -122.24474, 37.76658 ] } }
,
{ "type": "Feature", "properties": { "longitude": -118.144779, "latitude": 34.698905, "good url": "http:\/\/directory.occupy.net\/occupation\/us\/ca\/occupy-antelope-valley", "name": "Occupy Antelope Valley" }, "geometry": { "type": "Point", "coordinates": [ -118.14478, 34.6989 ] } }
,
{ "type": "Feature", "properties": { "longitude": -105.960323, "latitude": 32.89925, "good url": "http:\/\/directory.occupy.net\/occupation\/us\/nm\/occupy-alamogordo", "name": "Occupy Alamogordo" }, "geometry": { "type": "Point", "coordinates": [ -105.96032, 32.89925 ] } }
,
{ "type": "Feature", "properties": { "longitude": -121.819699, "latitude": 38.015825, "good url": "http:\/\/directory.occupy.net\/occupation\/us\/ca\/occupy-antioch", "name": "Occupy Antioch" }, "geometry": { "type": "Point", "coordinates": [ -121.8197, 38.01582 ] } }
,
{ "type": "Feature", "properties": { "longitude": -73.755254, "latitude": 42.651445, "good url": "http:\/\/directory.occupy.net\/occupation\/us\/ny\/occupy-albany-ny", "name": "Occupy Albany NY" }, "geometry": { "type": "Point", "coordinates": [ -73.75525, 42.65144 ] } }
,
{ "type": "Feature", "properties": { "longitude": -72.533204, "latitude": 42.370772, "good url": "http:\/\/directory.occupy.net\/occupation\/us\/ma\/occupy-amherst", "name": "Occupy Amherst" }, "geometry": { "type": "Point", "coordinates": [ -72.5332, 42.370772 ] } }
,
{ "type": "Feature", "properties": { "longitude": 6.088508, "latitude": 50.77813, "good url": "http:\/\/directory.occupy.net\/occupation\/de\/occupy-aachen", "name": "Occupy Aachen" }, "geometry": { "type": "Point", "coordinates": [ 6.088508, 50.77813 ] } }
,
{ "type": "Feature", "properties": { "longitude": 4.893305, "latitude": 52.373095, "good url": "http:\/\/directory.occupy.net\/occupation\/nl\/occupy-amsterdam", "name": "Occupy Amsterdam" }, "geometry": { "type": "Point", "coordinates": [ 4.8933, 52.37309 ] } }
,
{ "type": "Feature", "properties": { "longitude": 10.20488, "latitude": 56.152975, "good url": "http:\/\/directory.occupy.net\/occupation\/dk\/occupy-aarhus", "name": "Occupy Aarhus" }, "geometry": { "type": "Point", "coordinates": [ 10.20488, 56.15297 ] } }
,
{ "type": "Feature", "properties": { "longitude": -71.132139, "latitude": 42.353235, "good url": "http:\/\/directory.occupy.net\/occupation\/us\/ma\/occupy-allston", "name": "Occupy Allston" }, "geometry": { "type": "Point", "coordinates": [ -71.13214, 42.35323 ] } }
,
{ "type": "Feature", "properties": { "longitude": -83.445154, "latitude": 45.061565, "good url": "http:\/\/directory.occupy.net\/occupation\/us\/mi\/occupy-alpena", "name": "Occupy Alpena" }, "geometry": { "type": "Point", "coordinates": [ -83.445154, 45.06156 ] } }
,
{ "type": "Feature", "properties": { "longitude": -80.786736, "latitude": 41.889273, "good url": "http:\/\/directory.occupy.net\/occupation\/us\/oh\/occupy-ashtabula", "name": "Occupy Ashtabula" }, "geometry": { "type": "Point", "coordinates": [ -80.78674, 41.889273 ] } }
,
{ "type": "Feature", "properties": { "longitude": -74.007124, "latitude": 40.71455, "good url": "http:\/\/directory.occupy.net\/occupation\/us\/ny\/occupy-baruch-college", "name": "Occupy Baruch College" }, "geometry": { "type": "Point", "coordinates": [ -74.00712, 40.71455 ] } }
,
{ "type": "Feature", "properties": { "longitude": -2.361324, "latitude": 51.38503, "good url": "http:\/\/directory.occupy.net\/occupation\/gb\/occupy-bath", "name": "Occupy Bath" }, "geometry": { "type": "Point", "coordinates": [ -2.361324, 51.38503 ] } }
,
{ "type": "Feature", "properties": { "longitude": -65.648895, "latitude": 47.616787, "good url": "http:\/\/directory.occupy.net\/occupation\/ca\/nb\/occupy-bathurst", "name": "Occupy Bathurst" }, "geometry": { "type": "Point", "coordinates": [ -65.64889, 47.61679 ] } }
,
{ "type": "Feature", "properties": { "longitude": -91.186994, "latitude": 30.443345, "good url": "http:\/\/directory.occupy.net\/occupation\/us\/la\/occupy-baton-rouge", "name": "Occupy Baton Rouge" }, "geometry": { "type": "Point", "coordinates": [ -91.186994, 30.443345 ] } }
,
{ "type": "Feature", "properties": { "longitude": 23.73718, "latitude": 37.97605, "good url": "http:\/\/directory.occupy.net\/occupation\/gr\/occupy-athens-vassileios", "name": "Occupy Athens - Vassileios" }, "geometry": { "type": "Point", "coordinates": [ 23.73718, 37.97605 ] } }
,
{ "type": "Feature", "properties": { "longitude": 50.57795, "latitude": 26.2257, "good url": "http:\/\/directory.occupy.net\/occupation\/bh\/occupy-bahrain", "name": "Occupy Bahrain" }, "geometry": { "type": "Point", "coordinates": [ 50.57795, 26.2257 ] } }
,
{ "type": "Feature", "properties": { "longitude": -122.521004, "latitude": 47.626935, "good url": "http:\/\/directory.occupy.net\/occupation\/us\/wa\/occupy-bainbridge-island", "name": "Occupy Bainbridge Island" }, "geometry": { "type": "Point", "coordinates": [ -122.521, 47.62693 ] } }
,
{ "type": "Feature", "properties": { "longitude": -48.635086, "latitude": -22.514894, "good url": "http:\/\/directory.occupy.net\/occupation\/br\/sp\/occupy-baixo-augusta", "name": "Occupy Baixo Augusta" }, "geometry": { "type": "Point", "coordinates": [ -48.63509, -22.514894 ] } }
,
{ "type": "Feature", "properties": { "longitude": -119.018769, "latitude": 35.37327, "good url": "http:\/\/directory.occupy.net\/occupation\/us\/ca\/occupy-bakersfield", "name": "Occupy Bakersfield" }, "geometry": { "type": "Point", "coordinates": [ -119.01877, 35.37327 ] } }
,
{ "type": "Feature", "properties": { "longitude": -76.609264, "latitude": 39.290585, "good url": "http:\/\/directory.occupy.net\/occupation\/us\/md\/occupy-baltimore", "name": "Occupy Baltimore" }, "geometry": { "type": "Point", "coordinates": [ -76.60926, 39.29058 ] } }
,
{ "type": "Feature", "properties": { "longitude": 77.60482, "latitude": 12.97092, "good url": "http:\/\/directory.occupy.net\/occupation\/in\/occupy-bangalore", "name": "Occupy Bangalore" }, "geometry": { "type": "Point", "coordinates": [ 77.60482, 12.97092 ] } }
,
{ "type": "Feature", "properties": { "longitude": -3.688995, "latitude": 41.669924, "good url": "http:\/\/directory.occupy.net\/occupation\/es\/occupy-aranda-de-duero", "name": "Occupy Aranda de Duero" }, "geometry": { "type": "Point", "coordinates": [ -3.688995, 41.669924 ] } }
,
{ "type": "Feature", "properties": { "longitude": -84.391109, "latitude": 33.748315, "good url": "http:\/\/directory.occupy.net\/occupation\/us\/ga\/occupy-atlanta-west-end", "name": "Occupy Atlanta - West End" }, "geometry": { "type": "Point", "coordinates": [ -84.39111, 33.748315 ] } }
,
{ "type": "Feature", "properties": { "longitude": -74.426524, "latitude": 39.362815, "good url": "http:\/\/directory.occupy.net\/occupation\/us\/nj\/occupy-atlantic-city", "name": "Occupy Atlantic City" }, "geometry": { "type": "Point", "coordinates": [ -74.42652, 39.362815 ] } }
,
{ "type": "Feature", "properties": { "longitude": 175.04332, "latitude": -36.709249, "good url": "http:\/\/directory.occupy.net\/occupation\/nz\/occupy-auckland", "name": "Occupy Auckland" }, "geometry": { "type": "Point", "coordinates": [ 175.04332, -36.70925 ] } }
,
{ "type": "Feature", "properties": { "longitude": -81.975309, "latitude": 33.47909, "good url": "http:\/\/directory.occupy.net\/occupation\/us\/ga\/occupy-augusta-ga", "name": "Occupy Augusta GA" }, "geometry": { "type": "Point", "coordinates": [ -81.97531, 33.47909 ] } }
,
{ "type": "Feature", "properties": { "longitude": -95.979024, "latitude": 36.74678, "good url": "http:\/\/directory.occupy.net\/occupation\/us\/ok\/occupy-bartlesville", "name": "Occupy Bartlesville" }, "geometry": { "type": "Point", "coordinates": [ -95.97902, 36.74678 ] } }
,
{ "type": "Feature", "properties": { "longitude": -76.348479, "latitude": 39.53894, "good url": "http:\/\/directory.occupy.net\/occupation\/us\/md\/occupy-belair", "name": "Occupy BelAir" }, "geometry": { "type": "Point", "coordinates": [ -76.34848, 39.53894 ] } }
,
{ "type": "Feature", "properties": { "longitude": -75.377784, "latitude": 40.630985, "good url": "http:\/\/directory.occupy.net\/occupation\/us\/pa\/occupy-bethlehem", "name": "Occupy Bethlehem" }, "geometry": { "type": "Point", "coordinates": [ -75.37778, 40.630985 ] } }
,
{ "type": "Feature", "properties": { "longitude": -118.400344, "latitude": 34.073485, "good url": "http:\/\/directory.occupy.net\/occupation\/us\/ca\/occupy-beverly-hills", "name": "Occupy Beverly Hills" }, "geometry": { "type": "Point", "coordinates": [ -118.40034, 34.073485 ] } }
,
{ "type": "Feature", "properties": { "longitude": -2.96674, "latitude": 43.30479, "good url": "http:\/\/directory.occupy.net\/occupation\/es\/occupy-bilbao", "name": "Occupy Bilbao" }, "geometry": { "type": "Point", "coordinates": [ -2.96674, 43.30479 ] } }
,
{ "type": "Feature", "properties": { "longitude": -81.800719, "latitude": 26.330597, "good url": "http:\/\/directory.occupy.net\/occupation\/us\/fl\/occupy-bonita-springs", "name": "Occupy Bonita Springs" }, "geometry": { "type": "Point", "coordinates": [ -81.80072, 26.330597 ] } }
,
{ "type": "Feature", "properties": { "longitude": -97.452588, "latitude": 32.677946, "good url": "http:\/\/directory.occupy.net\/occupation\/us\/tx\/occupy-benbrook", "name": "Occupy Benbrook" }, "geometry": { "type": "Point", "coordinates": [ -97.45259, 32.67795 ] } }
,
{ "type": "Feature", "properties": { "longitude": -121.315549, "latitude": 44.05766, "good url": "http:\/\/directory.occupy.net\/occupation\/us\/or\/occupy-bend", "name": "Occupy Bend" }, "geometry": { "type": "Point", "coordinates": [ -121.315549, 44.05766 ] } }
,
{ "type": "Feature", "properties": { "longitude": -73.198185, "latitude": 42.87673, "good url": "http:\/\/directory.occupy.net\/occupation\/us\/vt\/occupy-bennington", "name": "Occupy Bennington" }, "geometry": { "type": "Point", "coordinates": [ -73.19818, 42.87673 ] } }
,
{ "type": "Feature", "properties": { "longitude": -80.410584, "latitude": 37.226263, "good url": "http:\/\/directory.occupy.net\/occupation\/us\/va\/occupy-blacksburg", "name": "Occupy Blacksburg" }, "geometry": { "type": "Point", "coordinates": [ -80.41058, 37.22626 ] } }
,
{ "type": "Feature", "properties": { "longitude": -86.532001, "latitude": 39.171326, "good url": "http:\/\/directory.occupy.net\/occupation\/us\/in\/occupy-bloomington", "name": "Occupy Bloomington" }, "geometry": { "type": "Point", "coordinates": [ -86.532001, 39.17133 ] } }
,
{ "type": "Feature", "properties": { "longitude": -86.534244, "latitude": 39.16659, "good url": "http:\/\/directory.occupy.net\/occupation\/us\/in\/occupy-bloomington-indiana-universi", "name": "Occupy Bloomington - Indiana University" }, "geometry": { "type": "Point", "coordinates": [ -86.53424, 39.16659 ] } }
,
{ "type": "Feature", "properties": { "longitude": 35.485271, "latitude": 33.89275, "good url": "http:\/\/directory.occupy.net\/occupation\/lb\/occupy-beirut", "name": "Occupy Beirut" }, "geometry": { "type": "Point", "coordinates": [ 35.48527, 33.89275 ] } }
,
{ "type": "Feature", "properties": { "longitude": -88.315774, "latitude": 41.75695, "good url": "http:\/\/directory.occupy.net\/occupation\/us\/il\/occupy-aurora-il", "name": "Occupy Aurora IL" }, "geometry": { "type": "Point", "coordinates": [ -88.31577, 41.75695 ] } }
,
{ "type": "Feature", "properties": { "longitude": -92.972333, "latitude": 43.66659, "good url": "http:\/\/directory.occupy.net\/occupation\/us\/mn\/occupy-austin-mn", "name": "Occupy Austin MN" }, "geometry": { "type": "Point", "coordinates": [ -92.97233, 43.66659 ] } }
,
{ "type": "Feature", "properties": { "longitude": -74.117489, "latitude": 40.668735, "good url": "http:\/\/directory.occupy.net\/occupation\/us\/nj\/occupy-bayonne", "name": "Occupy Bayonne" }, "geometry": { "type": "Point", "coordinates": [ -74.11749, 40.66873 ] } }
,
{ "type": "Feature", "properties": { "longitude": -122.197799, "latitude": 37.462488, "good url": "http:\/\/directory.occupy.net\/occupation\/us\/ca\/occupy-atherton", "name": "Occupy Atherton" }, "geometry": { "type": "Point", "coordinates": [ -122.1978, 37.46249 ] } }
,
{ "type": "Feature", "properties": { "longitude": -68.207424, "latitude": 44.389355, "good url": "http:\/\/directory.occupy.net\/occupation\/us\/me\/occupy%C2%A0bar-harbor", "name": "Occupy Bar Harbor" }, "geometry": { "type": "Point", "coordinates": [ -68.20742, 44.38935 ] } }
,
{ "type": "Feature", "properties": { "longitude": -82.5513, "latitude": 35.59522, "good url": "http:\/\/directory.occupy.net\/occupation\/us\/nc\/occupy-asheville", "name": "Occupy Asheville" }, "geometry": { "type": "Point", "coordinates": [ -82.5513, 35.59522 ] } }
,
{ "type": "Feature", "properties": { "longitude": 2.18029, "latitude": 41.39077, "good url": "http:\/\/directory.occupy.net\/occupation\/es\/occupy-barcelona", "name": "Occupy Barcelona" }, "geometry": { "type": "Point", "coordinates": [ 2.18029, 41.39077 ] } }
,
{ "type": "Feature", "properties": { "longitude": -82.643589, "latitude": 38.48069, "good url": "http:\/\/directory.occupy.net\/occupation\/us\/ky\/occupy-ashland-ky", "name": "Occupy Ashland KY" }, "geometry": { "type": "Point", "coordinates": [ -82.64359, 38.48069 ] } }
,
{ "type": "Feature", "properties": { "longitude": -122.717029, "latitude": 42.19967, "good url": "http:\/\/directory.occupy.net\/occupation\/us\/or\/occupy-ashland-or", "name": "Occupy Ashland OR" }, "geometry": { "type": "Point", "coordinates": [ -122.71703, 42.19967 ] } }
,
{ "type": "Feature", "properties": { "longitude": 7.444365, "latitude": 46.94733, "good url": "http:\/\/directory.occupy.net\/occupation\/ch\/occupy-bern", "name": "Occupy Bern" }, "geometry": { "type": "Point", "coordinates": [ 7.444365, 46.94733 ] } }
,
{ "type": "Feature", "properties": { "longitude": 83.789535, "latitude": 53.335765, "good url": "http:\/\/directory.occupy.net\/occupation\/ru\/occupy-bernau", "name": "Occupy Bernau" }, "geometry": { "type": "Point", "coordinates": [ 83.78953, 53.335765 ] } }
,
{ "type": "Feature", "properties": { "longitude": -74.11779, "latitude": 4.65637, "good url": "http:\/\/directory.occupy.net\/occupation\/co\/occupy-bogota", "name": "Occupy Bogota" }, "geometry": { "type": "Point", "coordinates": [ -74.11779, 4.65637 ] } }
,
{ "type": "Feature", "properties": { "longitude": -116.193409, "latitude": 43.60698, "good url": "http:\/\/directory.occupy.net\/occupation\/us\/id\/occupy-boise", "name": "Occupy Boise" }, "geometry": { "type": "Point", "coordinates": [ -116.19341, 43.60698 ] } }
,
{ "type": "Feature", "properties": { "longitude": -88.081199, "latitude": 41.698175, "good url": "http:\/\/directory.occupy.net\/occupation\/us\/il\/occupy-bolingbrook", "name": "Occupy Bolingbrook" }, "geometry": { "type": "Point", "coordinates": [ -88.0812, 41.69817 ] } }
,
{ "type": "Feature", "properties": { "longitude": -122.187849, "latitude": 47.610025, "good url": "http:\/\/directory.occupy.net\/occupation\/us\/wa\/occupy-bellevue", "name": "Occupy Bellevue" }, "geometry": { "type": "Point", "coordinates": [ -122.18785, 47.610025 ] } }
,
{ "type": "Feature", "properties": { "longitude": 11.345165, "latitude": 44.504835, "good url": "http:\/\/directory.occupy.net\/occupation\/it\/bo\/occupy-bologna", "name": "Occupy Bologna" }, "geometry": { "type": "Point", "coordinates": [ 11.345165, 44.50483 ] } }
,
{ "type": "Feature", "properties": { "longitude": -122.484329, "latitude": 48.75355, "good url": "http:\/\/directory.occupy.net\/occupation\/us\/wa\/occupy-bellingham", "name": "Occupy Bellingham" }, "geometry": { "type": "Point", "coordinates": [ -122.48433, 48.75355 ] } }
,
{ "type": "Feature", "properties": { "longitude": 11.354456, "latitude": 46.495002, "good url": "http:\/\/directory.occupy.net\/occupation\/it\/bz\/occupy-bolzano-bozen", "name": "Occupy Bolzano Bozen" }, "geometry": { "type": "Point", "coordinates": [ 11.35446, 46.495 ] } }
,
{ "type": "Feature", "properties": { "longitude": -43.932678, "latitude": -19.94536, "good url": "http:\/\/directory.occupy.net\/occupation\/br\/mg\/occupy-belo-horizonte", "name": "Occupy Belo Horizonte" }, "geometry": { "type": "Point", "coordinates": [ -43.932678, -19.94536 ] } }
,
{ "type": "Feature", "properties": { "longitude": -75.078954, "latitude": 40.82549, "good url": "http:\/\/directory.occupy.net\/occupation\/us\/nj\/occupy-belvidere", "name": "Occupy Belvidere" }, "geometry": { "type": "Point", "coordinates": [ -75.07895, 40.82549 ] } }
,
{ "type": "Feature", "properties": { "longitude": -75.911271, "latitude": 42.098687, "good url": "http:\/\/directory.occupy.net\/occupation\/us\/ny\/occupy-binghamton", "name": "Occupy Binghamton" }, "geometry": { "type": "Point", "coordinates": [ -75.91127, 42.09869 ] } }
,
{ "type": "Feature", "properties": { "longitude": -94.879649, "latitude": 47.473145, "good url": "http:\/\/directory.occupy.net\/occupation\/us\/mn\/occupy-bemidji", "name": "Occupy Bemidji" }, "geometry": { "type": "Point", "coordinates": [ -94.87965, 47.47314 ] } }
,
{ "type": "Feature", "properties": { "longitude": -1.908449, "latitude": 52.47863, "good url": "http:\/\/directory.occupy.net\/occupation\/gb\/occupy-birmingham-uk", "name": "Occupy Birmingham UK" }, "geometry": { "type": "Point", "coordinates": [ -1.908449, 52.47863 ] } }
,
{ "type": "Feature", "properties": { "longitude": -116.975059, "latitude": 33.929375, "good url": "http:\/\/directory.occupy.net\/occupation\/us\/ca\/occupy-beaumont-ca", "name": "Occupy Beaumont CA" }, "geometry": { "type": "Point", "coordinates": [ -116.97506, 33.929375 ] } }
,
{ "type": "Feature", "properties": { "longitude": -100.779334, "latitude": 46.805372, "good url": "http:\/\/directory.occupy.net\/occupation\/us\/nd\/occupy-bismarck", "name": "Occupy Bismarck" }, "geometry": { "type": "Point", "coordinates": [ -100.77933, 46.805372 ] } }
,
{ "type": "Feature", "properties": { "longitude": -94.101584, "latitude": 30.08615, "good url": "http:\/\/directory.occupy.net\/occupation\/us\/tx\/occupy-beaumont-tx", "name": "Occupy Beaumont TX" }, "geometry": { "type": "Point", "coordinates": [ -94.10158, 30.08615 ] } }
,
{ "type": "Feature", "properties": { "longitude": 21.315325, "latitude": 41.03295, "good url": "http:\/\/directory.occupy.net\/occupation\/mk\/occupy-bitola-mony", "name": "Occupy Bitola Mony" }, "geometry": { "type": "Point", "coordinates": [ 21.315325, 41.03295 ] } }
,
{ "type": "Feature", "properties": { "longitude": -122.796153, "latitude": 45.484895, "good url": "http:\/\/directory.occupy.net\/occupation\/us\/or\/occupy-beaverton", "name": "Occupy Beaverton" }, "geometry": { "type": "Point", "coordinates": [ -122.79615, 45.484895 ] } }
,
{ "type": "Feature", "properties": { "longitude": -81.187647, "latitude": 37.777592, "good url": "http:\/\/directory.occupy.net\/occupation\/us\/wv\/occupy-beckley", "name": "Occupy Beckley" }, "geometry": { "type": "Point", "coordinates": [ -81.187647, 37.777592 ] } }
,
{ "type": "Feature", "properties": { "longitude": 116.387909, "latitude": 39.90601, "good url": "http:\/\/directory.occupy.net\/occupation\/cn\/occupy-beijing", "name": "Occupy Beijing" }, "geometry": { "type": "Point", "coordinates": [ 116.38791, 39.90601 ] } }
,
{ "type": "Feature", "properties": { "longitude": -71.056699, "latitude": 42.358635, "good url": "http:\/\/directory.occupy.net\/occupation\/us\/ma\/occupy-berklee-music", "name": "Occupy Berklee Music" }, "geometry": { "type": "Point", "coordinates": [ -71.0567, 42.35863 ] } }
,
{ "type": "Feature", "properties": { "longitude": -86.445584, "latitude": 36.994625, "good url": "http:\/\/directory.occupy.net\/occupation\/us\/ky\/occupy-bowling-green-ky", "name": "Occupy Bowling Green KY" }, "geometry": { "type": "Point", "coordinates": [ -86.44558, 36.994625 ] } }
,
{ "type": "Feature", "properties": { "longitude": -83.650419, "latitude": 41.37546, "good url": "http:\/\/directory.occupy.net\/occupation\/us\/oh\/occupy-bowling-green-oh", "name": "Occupy Bowling Green OH" }, "geometry": { "type": "Point", "coordinates": [ -83.65042, 41.37546 ] } }
,
{ "type": "Feature", "properties": { "longitude": -78.878464, "latitude": 42.88544, "good url": "http:\/\/directory.occupy.net\/occupation\/us\/ny\/occupy-buffalo", "name": "Occupy Buffalo" }, "geometry": { "type": "Point", "coordinates": [ -78.87846, 42.88544 ] } }
,
{ "type": "Feature", "properties": { "longitude": -80.063159, "latitude": 26.52891, "good url": "http:\/\/directory.occupy.net\/occupation\/us\/fl\/occupy-boynton-beach", "name": "Occupy Boynton Beach" }, "geometry": { "type": "Point", "coordinates": [ -80.063159, 26.52891 ] } }
,
{ "type": "Feature", "properties": { "longitude": -118.308124, "latitude": 34.18147, "good url": "http:\/\/directory.occupy.net\/occupation\/us\/ca\/occupy-burbank", "name": "Occupy Burbank" }, "geometry": { "type": "Point", "coordinates": [ -118.30812, 34.18147 ] } }
,
{ "type": "Feature", "properties": { "longitude": -81.686965, "latitude": 36.220364, "good url": "http:\/\/directory.occupy.net\/occupation\/us\/nc\/occupy-boone", "name": "Occupy Boone" }, "geometry": { "type": "Point", "coordinates": [ -81.68696, 36.22036 ] } }
,
{ "type": "Feature", "properties": { "longitude": 16.603615, "latitude": 49.19729, "good url": "http:\/\/directory.occupy.net\/occupation\/cz\/occupy-brno", "name": "Occupy Brno" }, "geometry": { "type": "Point", "coordinates": [ 16.603615, 49.19729 ] } }
,
{ "type": "Feature", "properties": { "longitude": -71.056699, "latitude": 42.358635, "good url": "http:\/\/directory.occupy.net\/occupation\/us\/ma\/occupy-boston", "name": "Occupy Boston" }, "geometry": { "type": "Point", "coordinates": [ -71.0567, 42.35863 ] } }
,
{ "type": "Feature", "properties": { "longitude": -124.288935, "latitude": 42.054684, "good url": "http:\/\/directory.occupy.net\/occupation\/us\/or\/occupy-brookings", "name": "Occupy Brookings" }, "geometry": { "type": "Point", "coordinates": [ -124.28893, 42.05468 ] } }
,
{ "type": "Feature", "properties": { "longitude": -72.558881, "latitude": 42.854069, "good url": "http:\/\/directory.occupy.net\/occupation\/us\/vt\/occupy-brattleboro", "name": "Occupy Brattleboro" }, "geometry": { "type": "Point", "coordinates": [ -72.55888, 42.854069 ] } }
,
{ "type": "Feature", "properties": { "longitude": -80.089004, "latitude": 26.35049, "good url": "http:\/\/directory.occupy.net\/occupation\/us\/fl\/occupy-boca-raton", "name": "Occupy Boca Raton" }, "geometry": { "type": "Point", "coordinates": [ -80.089, 26.35049 ] } }
,
{ "type": "Feature", "properties": { "longitude": 7.210796, "latitude": 51.486442, "good url": "http:\/\/directory.occupy.net\/occupation\/de\/occupy-bochum", "name": "Occupy Bochum" }, "geometry": { "type": "Point", "coordinates": [ 7.210796, 51.486442 ] } }
,
{ "type": "Feature", "properties": { "longitude": -51.291456, "latitude": -24.61602, "good url": "http:\/\/directory.occupy.net\/occupation\/br\/pr\/occupy-bel%C3%A9m-do-par%C3%A1", "name": "Occupy Belém do Pará" }, "geometry": { "type": "Point", "coordinates": [ -51.29146, -24.61602 ] } }
,
{ "type": "Feature", "properties": { "longitude": 20.462419, "latitude": 44.812372, "good url": "http:\/\/directory.occupy.net\/occupation\/rs\/occupy-belgrade-serbia", "name": "Occupy Belgrade Serbia" }, "geometry": { "type": "Point", "coordinates": [ 20.462419, 44.81237 ] } }
,
{ "type": "Feature", "properties": { "longitude": -108.505794, "latitude": 45.783975, "good url": "http:\/\/directory.occupy.net\/occupation\/us\/mt\/occupy-billings", "name": "Occupy Billings" }, "geometry": { "type": "Point", "coordinates": [ -108.50579, 45.78397 ] } }
,
{ "type": "Feature", "properties": { "longitude": -88.896383, "latitude": 30.394384, "good url": "http:\/\/directory.occupy.net\/occupation\/us\/ms\/occupy-biloxi", "name": "Occupy Biloxi" }, "geometry": { "type": "Point", "coordinates": [ -88.89638, 30.39438 ] } }
,
{ "type": "Feature", "properties": { "longitude": -121.941872, "latitude": 38.020889, "good url": "http:\/\/directory.occupy.net\/occupation\/us\/ca\/occupy-baypoint", "name": "Occupy BayPoint" }, "geometry": { "type": "Point", "coordinates": [ -121.94187, 38.020889 ] } }
,
{ "type": "Feature", "properties": { "longitude": -73.972824, "latitude": 41.506665, "good url": "http:\/\/directory.occupy.net\/occupation\/us\/ny\/occupy-beacon", "name": "Occupy Beacon" }, "geometry": { "type": "Point", "coordinates": [ -73.97282, 41.506665 ] } }
,
{ "type": "Feature", "properties": { "longitude": -94.231705, "latitude": 36.359526, "good url": "http:\/\/directory.occupy.net\/occupation\/us\/ar\/occupy-bentonville", "name": "Occupy Bentonville" }, "geometry": { "type": "Point", "coordinates": [ -94.2317, 36.359526 ] } }
,
{ "type": "Feature", "properties": { "longitude": 5.33275, "latitude": 60.390705, "good url": "http:\/\/directory.occupy.net\/occupation\/no\/occupy-bergen", "name": "Occupy Bergen" }, "geometry": { "type": "Point", "coordinates": [ 5.33275, 60.3907 ] } }
,
{ "type": "Feature", "properties": { "longitude": -88.913467, "latitude": 40.484051, "good url": "http:\/\/directory.occupy.net\/occupation\/us\/il\/occupy-bloomingtonnormal", "name": "Occupy Bloomington\/Normal" }, "geometry": { "type": "Point", "coordinates": [ -88.91347, 40.48405 ] } }
,
{ "type": "Feature", "properties": { "longitude": -80.23174, "latitude": 38.993259, "good url": "http:\/\/directory.occupy.net\/occupation\/us\/wv\/occupy-buckhannon", "name": "Occupy Buckhannon" }, "geometry": { "type": "Point", "coordinates": [ -80.23174, 38.993259 ] } }
,
{ "type": "Feature", "properties": { "longitude": -1.880916, "latitude": 50.720405, "good url": "http:\/\/directory.occupy.net\/occupation\/gb\/occupy-bournemouth", "name": "Occupy Bournemouth" }, "geometry": { "type": "Point", "coordinates": [ -1.880916, 50.7204 ] } }
,
{ "type": "Feature", "properties": { "longitude": 19.06482, "latitude": 47.506225, "good url": "http:\/\/directory.occupy.net\/occupation\/hu\/occupy-budapest", "name": "Occupy Budapest" }, "geometry": { "type": "Point", "coordinates": [ 19.06482, 47.506225 ] } }
,
{ "type": "Feature", "properties": { "longitude": -83.785114, "latitude": 42.530745, "good url": "http:\/\/directory.occupy.net\/occupation\/us\/mi\/occupy-brighton-mi", "name": "Occupy Brighton MI" }, "geometry": { "type": "Point", "coordinates": [ -83.78511, 42.53074 ] } }
,
{ "type": "Feature", "properties": { "longitude": -58.373539, "latitude": -34.608521, "good url": "http:\/\/directory.occupy.net\/occupation\/ar\/occupy-buenos-aires", "name": "Occupy Buenos Aires" }, "geometry": { "type": "Point", "coordinates": [ -58.373539, -34.608521 ] } }
,
{ "type": "Feature", "properties": { "longitude": -0.134429, "latitude": 50.828481, "good url": "http:\/\/directory.occupy.net\/occupation\/gb\/occupy-brighton-uk", "name": "Occupy Brighton UK" }, "geometry": { "type": "Point", "coordinates": [ -0.134429, 50.82848 ] } }
,
{ "type": "Feature", "properties": { "longitude": 153.022827, "latitude": -27.46888, "good url": "http:\/\/directory.occupy.net\/occupation\/au\/qld\/occupy-brisbane", "name": "Occupy Brisbane" }, "geometry": { "type": "Point", "coordinates": [ 153.022827, -27.46888 ] } }
,
{ "type": "Feature", "properties": { "longitude": -82.221273, "latitude": 36.591934, "good url": "http:\/\/directory.occupy.net\/occupation\/us\/tn\/occupy-bristol-tn", "name": "Occupy Bristol TN" }, "geometry": { "type": "Point", "coordinates": [ -82.22127, 36.59193 ] } }
,
{ "type": "Feature", "properties": { "longitude": -2.591564, "latitude": 51.45373, "good url": "http:\/\/directory.occupy.net\/occupation\/gb\/occupy-bristol-uk", "name": "Occupy Bristol UK" }, "geometry": { "type": "Point", "coordinates": [ -2.591564, 51.45373 ] } }
,
{ "type": "Feature", "properties": { "longitude": -82.180794, "latitude": 36.598545, "good url": "http:\/\/directory.occupy.net\/occupation\/us\/va\/occupy-bristol-va", "name": "Occupy Bristol VA" }, "geometry": { "type": "Point", "coordinates": [ -82.18079, 36.598545 ] } }
,
{ "type": "Feature", "properties": { "longitude": 146.482513, "latitude": -41.556053, "good url": "http:\/\/directory.occupy.net\/occupation\/au\/tas\/occupy-burnie-devonport-hobart-gum", "name": "Occupy Burnie-Devonport-Hobart-Gumtree" }, "geometry": { "type": "Point", "coordinates": [ 146.48251, -41.556053 ] } }
,
{ "type": "Feature", "properties": { "longitude": -1.758306, "latitude": 53.79574, "good url": "http:\/\/directory.occupy.net\/occupation\/gb\/occupy-bradford-uk", "name": "Occupy Bradford UK" }, "geometry": { "type": "Point", "coordinates": [ -1.758306, 53.79574 ] } }
,
{ "type": "Feature", "properties": { "longitude": -112.52089, "latitude": 46.001753, "good url": "http:\/\/directory.occupy.net\/occupation\/us\/mt\/occupy-butte", "name": "Occupy Butte" }, "geometry": { "type": "Point", "coordinates": [ -112.52089, 46.00175 ] } }
,
{ "type": "Feature", "properties": { "longitude": 153.602921, "latitude": -28.64696, "good url": "http:\/\/directory.occupy.net\/occupation\/au\/nsw\/occupy-byron-bay", "name": "Occupy Byron Bay" },